INTERSECTION,CAMERA ID,ADDRESS,VIOLATION DATE,VIOLATIONS,X COORDINATE,Y COORDINATE,LATITUDE,LONGITUDE,LOCATION
ASHLAND AND IRVING PARK,1153.0,1600 W IRVING PARK ROA,05/12/2018,2,,,,,
CHICAGO AND CLARK,1964.0,100 W CHICAGO AVENUE,05/12/2018,3,1175374.528739575,1905745.47783364,41.896744346999995,-87.63132124799999,"(41.896744346875806, -87.63132124815151)"
AUSTIN AND IRVING PARK,1163.0,6000 W IRVING PARK ROAD,05/12/2018,2,1135622.402636023,1926014.192063646,41.953163771999996,-87.776842593,"(41.95316377185154, -87.77684259284736)"
KIMBALL AND DIVERSEY,1583.0,3400 W DIVERSEY AVENUE,05/12/2018,4,1153211.149172713,1918454.477800566,41.932087747,-87.71238583,"(41.932087747378944, -87.71238582951281)"
CICERO AND 47TH,2204.0,4800 W 47TH ST,05/12/2018,7,1145130.0489257441,1873078.44198302,41.807727017,-87.74322936600001,"(41.80772701677172, -87.74322936566276)"
CENTRAL AND LAKE,1743.0,5600 W LAKE STREET,05/12/2018,3,1138951.495695032,1902230.5104657332,41.887838735,-87.76518366299999,"(41.887838735330206, -87.76518366338465)"
CICERO AND ADDISON,1611.0,3600 N CICERO AVENUE,05/12/2018,8,1143698.904601495,1923517.005821035,41.946163524,-87.747215169,"(41.94616352362556, -87.74721516897007)"
CENTRAL AND CHICAGO,1972.0,800 N CENTRAL AVENUE,05/12/2018,8,1138836.562608552,1904801.732832435,41.894896579,-87.765543258,"(41.89489657939746, -87.76554325845893)"
71ST AND ASHLAND,2391.0,7100 S ASHLAND,05/12/2018,1,1166868.379865725,1857616.168087255,41.764859382,-87.663940176,"(41.764859382425385, -87.66394017630476)"
MICHIGAN AND ONTARIO,3082.0,628 N MICHIGAN AVE,05/12/2018,17,1177278.716938521,1904554.133997858,41.893432274,-87.624363719,"(41.893432274200684, -87.62436371928398)"
ASHLAND AND 87TH,2452.0,8700 S ASHLAND AVE,05/12/2018,1,1167150.470087748,1846991.212339794,41.735696989000004,-87.663209544,"(41.73569698863625, -87.66320954445679)"
CICERO AND WASHINGTON,1892.0,100 N CICERO AVENUE,05/12/2018,8,1144328.984091479,1900095.1708384592,41.88187971,-87.74548924700001,"(41.88187970991601, -87.7454892473012)"
AUSTIN AND ADDISON,1493.0,6000 W ADDISON STREET,05/12/2018,4,1135698.173154422,1923360.229527805,41.945879676,-87.776627421,"(41.94587967559099, -87.77662742093737)"
FOSTER AND NORTHWEST HIGHWAY,3003.0,5616 W FOSTER AVE,05/12/2018,3,1137626.093281239,1934273.239128334,41.97579142,-87.769276893,"(41.975791419680704, -87.76927689293382)"
BELMONT AND KEDZIE,1373.0,3200 W BELMONT,05/12/2018,1,1154461.587940363,1921143.091003516,41.939440561,-87.707718516,"(41.93944056117365, -87.70771851630873)"
STONY ISLAND/CORNELL AND 67TH,2721.0,6700 S STONY ISLAND A,05/12/2018,9,1187984.143047539,1860863.338367666,41.773292896,-87.586442368,"(41.77329289585066, -87.58644236831432)"
CALIFORNIA AND DIVERSEY,1511.0,2800 N CALIFORNIA AVE,05/12/2018,8,1157189.355049829,1918495.6447540692,41.932120719000004,-87.6977653,"(41.93212071910647, -87.69776530036465)"
HARLEM AND BELMONT,1391.0,3200 N HARLEM AVE,05/12/2018,3,1127481.020995451,1920467.613239239,41.938084468,-87.80689674899999,"(41.93808446822169, -87.80689674887883)"
PULASKI AND ARCHER,2153.0,5000 S ARCHER AVE,05/12/2018,2,1150501.818909837,1871162.311703322,41.802365973,-87.72357676600001,"(41.80236597333895, -87.72357676611004)"
SACRAMENTO AND CHICAGO,1814.0,3000 W CHICAGO AVENUE,05/12/2018,8,1156075.266375505,1905216.6047707181,41.895704525,-87.702218524,"(41.895704524946225, -87.70221852353758)"
STONEY ISLAND AND 76TH,2632.0,7600 S STONY ISLAND A,05/01/2018,33,1188092.796191935,1854889.3541583042,41.756897173,-87.586234285,"(41.75689717260223, -87.58623428506996)"
PULASKI AND DIVERSEY,1542.0,2800 N PULASKI ROAD,05/12/2018,2,1149200.724531183,1918332.222549679,41.931831026,-87.72712687299999,"(41.93183102561505, -87.72712687300454)"
ROOSEVELT AND HALSTED,2233.0,800 W ROOSEVELT ROAD,05/19/2018,8,1171199.282357741,1894968.0563937242,41.867263098,-87.646972686,"(41.86726309836901, -87.64697268601648)"
PULASKI AND LAWRENCE,1173.0,4000 W LAWRENCE AVENUE,05/19/2018,3,1148844.2200856009,1931638.45430438,41.968351285,-87.728091672,"(41.96835128527914, -87.72809167198088)"
CICERO AND ADDISON,1611.0,3600 N CICERO AVENUE,05/19/2018,9,1143698.904601495,1923517.005821035,41.946163524,-87.747215169,"(41.94616352362556, -87.74721516897007)"
KEDZIE AND ARMITAGE,1834.0,3200 W ARMITAGE AVENUE,05/19/2018,3,1154700.851347995,1913153.252187904,41.917511023,-87.707053639,"(41.91751102291878, -87.7070536388797)"
ASHLAND AND FULLERTON,1652.0,2400 N ASHLAND AVENUE,05/19/2018,10,1165228.0733428379,1916032.319169157,41.92519389,-87.66829436299999,"(41.92519388981048, -87.66829436339881)"
KOSTNER AND NORTH,2012.0,4400 W GRAND AVE,05/10/2018,4,1146773.519128439,1910425.663958581,41.91018141,-87.73624887,"(41.910181409597406, -87.73624887040725)"
KOSTNER AND NORTH,2011.0,1600 N KOSTNER,05/10/2018,1,1146732.108679105,1910282.120990798,41.909788304,-87.736404667,"(41.90978830394343, -87.73640466739216)"
ASHLAND AND DIVISION,1793.0,1600 W DIVISION STREET,05/19/2018,3,1165489.684200442,1908112.312963909,41.903455316,-87.66755899399999,"(41.903455316483814, -87.66755899396976)"
ASHLAND AND IRVING PARK,1153.0,1600 W IRVING PARK ROA,03/17/2017,5,,,,,
ASHLAND AND LAWRENCE,1142.0,4800 N ASHLAND AVENUE,05/10/2018,6,1164751.686785145,1932001.206626392,41.96902343,-87.669590434,"(41.969023429614026, -87.66959043354217)"
PETERSON AND WESTERN,1014.0,2400 W PETERSON,05/19/2018,8,1159214.211316277,1939825.301874586,41.99060901,-87.689735481,"(41.990609009807294, -87.68973548092968)"
CICERO AND HARRISON,2023.0,4800 W HARRISON STREET,05/10/2018,2,1144451.867388303,1896949.5619594632,41.873245464,-87.74511717899999,"(41.873245464379586, -87.7451171788807)"
OGDEN AND KOSTNER,2223.0,4400 W OGDEN AVENUE,05/19/2018,1,1147406.592439224,1887689.099869462,41.847777523000005,-87.734505969,"(41.84777752280453, -87.73450596874825)"
CALIFORNIA AND DIVERSEY,1514.0,2800 W DIVERSEY,05/19/2018,23,1157212.54253358,1918526.6744349431,41.932205395,-87.697679244,"(41.93220539506452, -87.6976792438691)"
DIVERSEY AND WESTERN,1431.0,2800 N WESTERN AVENUE,05/19/2018,6,1159837.205417355,1918550.506189309,41.932216988,-87.688033281,"(41.93221698794738, -87.68803328089533)"
LAFAYETTE AND 87TH,2503.0,30 W 87TH STREET,05/19/2018,40,1177407.6518002371,1847320.7720583118,41.736376037,-87.625621311,"(41.736376036604916, -87.62562131092602)"
MILWAUKEE AND DEVON,1272.0,6400 N MILWAUKEE AVEN,05/19/2018,4,1132463.750397878,1942107.9115076268,41.997382173000005,-87.788077674,"(41.99738217345368, -87.78807767391953)"
PULASKI AND DIVISION,1801.0,1200 N PULASKI ROAD,05/11/2018,1,1149459.590666926,1907723.219884254,41.902713901999995,-87.72645145700001,"(41.902713901936174, -87.72645145715836)"
AUSTIN AND ADDISON,1491.0,3600 N AUSTIN AVENUE,05/19/2018,8,1135691.599896458,1923335.967306169,41.945813215,-87.776652162,"(41.9458132146695, -87.77665216156436)"
CHICAGO AND CLARK,1963.0,100 W CHICAGO AVENUE,05/19/2018,4,1175374.528739575,1905745.47783364,41.896744346999995,-87.63132124799999,"(41.896744346875806, -87.63132124815151)"
ARCHER AND CICERO,2084.0,5400 S ARCHER AVE,05/19/2018,9,1145209.426392053,1869810.657411975,41.798758208,-87.743020541,"(41.798758207843264, -87.74302054146467)"
DAMEN AND 63RD,2702.0,6300 S DAMEN AVENUE,05/19/2018,4,1164069.4079432979,1862830.277442834,41.779226920999996,-87.674052731,"(41.77922692069256, -87.67405273137854)"
FOSTER AND NAGLE,1031.0,5200 N NAGLE,05/19/2018,9,1132529.656558223,1934201.702060651,41.97568567,-87.788020406,"(41.97568566971868, -87.78802040620296)"
COLUMBUS AND ILLINOIS,1952.0,500 N COLUMBUS DRIVE,05/19/2018,7,1178372.808407292,1903693.06016042,41.891044569,-87.620371839,"(41.891044569124276, -87.620371839074)"
KOSTNER AND NORTH,2011.0,1600 N KOSTNER,05/19/2018,2,1146732.108679105,1910282.120990798,41.909788304,-87.736404667,"(41.90978830394343, -87.73640466739216)"
CICERO AND PETERSON,1204.0,4800 W PETERSON AVENUE,05/19/2018,2,1143273.766829016,1939491.9446451268,41.990008007,-87.748376951,"(41.99000800729908, -87.74837695118997)"
IRVING PARK AND NARRAGANSETT,1023.0,6400 W IRVING PK,05/13/2018,1,1132945.939118726,1925946.304925137,41.953024751,-87.786683238,"(41.95302475075328, -87.78668323766634)"
CENTRAL AND CHICAGO,1973.0,5600 W CHICAGO AVENUE,05/13/2018,7,1138858.856732452,1904825.827586656,41.894962293,-87.76546079100001,"(41.89496229349977, -87.76546079122906)"
KEDZIE AND 71ST,2352.0,7100 S KEDZIE AVENUE,05/13/2018,3,1156225.540366296,1857330.103443232,41.764295037,-87.702957162,"(41.764295036756856, -87.70295716211793)"
HAMLIN AND LAKE,1881.0,300 N HAMLIN AVENUE,05/13/2018,1,1150970.026856642,1901381.688308858,41.885282636,-87.721069539,"(41.88528263580913, -87.72106953854511)"
55TH and PULASKI,2242.0,5500 S PULASKI,05/13/2018,4,1150600.072649439,1867806.44512718,41.793155061,-87.723303765,"(41.793155060731024, -87.72330376464247)"
STATE AND 79TH,2651.0,7900 S STATE STREET,05/13/2018,7,1177618.1669299658,1852621.8702328382,41.750918138,-87.624690123,"(41.7509181383154, -87.62469012251644)"
DAMEN AND DIVERSEY,1464.0,2000 W DIVERSEY PARKWAY,05/13/2018,2,1162519.714934025,1918635.417634925,41.932394164,-87.678173031,"(41.93239416403691, -87.67817303087757)"
HAMLIN AND MADISON,1903.0,3800 W MADISON STREET,05/13/2018,9,1151032.709141294,1899784.033986533,41.880897273,-87.720881226,"(41.880897273491264, -87.72088122613924)"
55TH AND KEDZIE,2162.0,5500 S KEDZIE AVENUE,05/13/2018,2,1155945.854705238,1867941.621374192,41.793420237,-87.70369750799999,"(41.793420236755864, -87.70369750845424)"
CICERO AND DIVERSEY,1691.0,2800 N CICERO AVENUE,05/13/2018,2,1143863.647574835,1918202.0184634142,41.931575608,-87.74674330100001,"(41.93157560844622, -87.74674330113561)"
CLARK AND IRVING PARK,1093.0,1300 W IRVING PARK ROAD,05/13/2018,7,1166777.545456989,1926719.73687357,41.954487567,-87.662293496,"(41.95448756687966, -87.66229349585691)"
ASHLAND AND 87TH,2454.0,1600 W 87TH ST,05/13/2018,6,1167171.941297436,1847064.855345151,41.735898617,-87.663128781,"(41.735898617066006, -87.66312878090133)"
CANAL AND ROOSEVELT,2294.0,500 W ROOSEVELT ROAD,05/13/2018,17,1173290.72186561,1895021.166235495,41.867362693000004,-87.639293195,"(41.867362692616666, -87.63929319464197)"
CENTRAL AND LAKE,1742.0,400 N CENTRAL AVENUE,05/13/2018,9,1138928.4782575371,1902217.926149854,41.887804621,-87.765268498,"(41.88780462053497, -87.76526849810371)"
LASALLE AND KINZIE,1923.0,140 W KINZIE,05/13/2018,4,1175048.09765242,1903028.8947602941,41.889297219,-87.63260164799999,"(41.88929721947309, -87.63260164817305)"
BROADWAY/SHERIDAN AND DEVON,1123.0,1200 W DEVON AVE,05/13/2018,1,1167109.644248166,1942688.147952186,41.998298228,-87.660611661,"(41.99829822771884, -87.66061166063517)"
MICHIGAN AND ONTARIO,3084.0,100 E ONTARIO ST,05/13/2018,2,1177006.928692496,1904549.656773295,41.893426147,-87.625362025,"(41.89342614670784, -87.62536202456768)"
CHICAGO AND CLARK,1963.0,100 W CHICAGO AVENUE,05/13/2018,7,1175374.528739575,1905745.47783364,41.896744346999995,-87.63132124799999,"(41.896744346875806, -87.63132124815151)"
TOUHY AND OSCEOLA,1243.0,7432 W TOUHY AVENUE,05/13/2018,4,1125717.010560011,1947269.685461107,42.011661765,-87.812781431,"(42.01166176507329, -87.81278143114147)"
CICERO AND HARRISON,2022.0,600 S CICERO AVENUE,05/13/2018,9,1144444.97442848,1896894.622216872,41.873094833,-87.745143869,"(41.873094832519136, -87.74514386884542)"
MONTROSE AND WESTERN,1221.0,4400 N WESTERN AVENUE,05/13/2018,8,1159539.733234718,1929183.9180955018,41.961401846,-87.688832623,"(41.961401846278505, -87.6888326227788)"
99TH AND HALSTED,2433.0,800 W 99TH ST,05/13/2018,18,1172710.6425656842,1839246.3306021432,41.714323336999996,-87.643066714,"(41.71432333701137, -87.64306671421937)"
DIVISION AND DAMEN,1733.0,2000 W DIVISION,05/13/2018,3,1162815.7108601942,1908034.672555531,41.903298793000005,-87.67738324700001,"(41.903298792681944, -87.67738324739636)"
ASHLAND AND LAWRENCE,1142.0,4800 N ASHLAND AVENUE,05/13/2018,2,1164751.686785145,1932001.206626392,41.96902343,-87.669590434,"(41.969023429614026, -87.66959043354217)"
FOSTER AND NAGLE,1034.0,6400 W FOSTER,05/13/2018,4,1132552.893142153,1934229.875527466,41.975762574,-87.787934296,"(41.97576257447203, -87.7879342955108)"
DIVISION AND DAMEN,1734.0,2000 W DIVISION,05/13/2018,9,1162815.7108601942,1908034.672555531,41.903298793000005,-87.67738324700001,"(41.903298792681944, -87.67738324739636)"
ROOSEVELT AND KOSTNER,2321.0,1200 S KOSTNER,05/13/2018,2,1147196.304001978,1894305.8832697459,41.865938839,-87.735108549,"(41.8659388389088, -87.73510854901264)"
ASHLAND AND DIVISION,1791.0,1200 N ASHLAND AVENUE,05/13/2018,7,1165466.997046718,1908083.767015974,41.903377468,-87.667643142,"(41.903377467566784, -87.66764314227497)"
CICERO AND WASHINGTON,1892.0,100 N CICERO AVENUE,05/13/2018,4,1144328.984091479,1900095.1708384592,41.88187971,-87.74548924700001,"(41.88187970991601, -87.7454892473012)"
ROOSEVELT AND KOSTNER,2323.0,4400 W ROOSEVELT,05/13/2018,7,1147200.963258796,1894379.538078088,41.866140868,-87.73508956,"(41.866140867641654, -87.73508956008207)"
KEDZIE AND 26TH,2382.0,2600 S KEDZIE AVENUE,05/13/2018,1,1155404.235510285,1886524.460033054,41.844424831,-87.70518545200001,"(41.84442483084393, -87.70518545233183)"
PULASKI AND NORTH,1992.0,1600 N PULASKI AVENUE,05/13/2018,4,1149432.959240306,1910369.112502195,41.90997501,-87.72648052299999,"(41.909975010236906, -87.72648052306623)"
PULASKI AND NORTH,1994.0,4000 W NORTH AVENUE,05/13/2018,2,1149456.2688421998,1910376.774019002,41.909995582,-87.72639469299999,"(41.90999558160536, -87.72639469321471)"
KEDZIE AND 71ST,2354.0,3200 W 71ST STREET,05/13/2018,1,1156246.862901455,1857404.014959868,41.764497433,-87.702877023,"(41.76449743256955, -87.70287702335861)"
SACRAMENTO AND LAKE,1822.0,150 N SACRAMENTO BOUL,05/13/2018,1,1156319.560664766,1900957.4893519618,41.884012178,-87.701436479,"(41.88401217771363, -87.7014364786693)"
PULASKI AND DIVISION,1801.0,1200 N PULASKI ROAD,05/13/2018,1,1149459.590666926,1907723.219884254,41.902713901999995,-87.72645145700001,"(41.902713901936174, -87.72645145715836)"
OGDEN AND KOSTNER,2222.0,2348 S KOSTNER AVENUE,05/13/2018,6,1147394.548182079,1887795.1777820818,41.848068845,-87.734547457,"(41.8480688449598, -87.73454745748458)"
SACRAMENTO AND CHICAGO,1812.0,800 N SACRAMENTO AVEN,05/13/2018,11,1156039.008141929,1905193.084100581,41.895640714,-87.70235232799999,"(41.89564071387542, -87.70235232767416)"
CICERO AND ADDISON,1612.0,3600 N CICERO AVENUE,05/13/2018,5,1143698.904601495,1923517.005821035,41.946163524,-87.747215169,"(41.94616352362556, -87.74721516897007)"
DAMEN AND 63RD,2702.0,6300 S DAMEN AVENUE,05/13/2018,6,1164069.4079432979,1862830.277442834,41.779226920999996,-87.674052731,"(41.77922692069256, -87.67405273137854)"
RIDGE AND CLARK,1051.0,5930 N CLARK STREET,05/13/2018,4,1164554.784723473,1939388.5115164418,41.98929863,-87.67010412100001,"(41.98929863013193, -87.67010412112992)"
HAMLIN AND LAKE,1882.0,300 N HAMLIN AVENUE,05/13/2018,1,1150970.026856642,1901381.688308858,41.885282636,-87.721069539,"(41.88528263580913, -87.72106953854511)"
71ST AND ASHLAND,2391.0,7100 S ASHLAND,05/13/2018,5,1166868.379865725,1857616.168087255,41.764859382,-87.663940176,"(41.764859382425385, -87.66394017630476)"
PULASKI AND ARCHER,2154.0,5000 S ARCHER AVE,05/13/2018,2,1150501.818909837,1871162.311703322,41.802365973,-87.72357676600001,"(41.80236597333895, -87.72357676611004)"
MICHIGAN AND ONTARIO,3082.0,628 N MICHIGAN AVE,05/13/2018,26,1177278.716938521,1904554.133997858,41.893432274,-87.624363719,"(41.893432274200684, -87.62436371928398)"
LAWRENCE AND WESTERN,1192.0,4800 N WESTERN AVENUE,05/13/2018,1,1159459.622430471,1931821.342623414,41.968640727,-87.68905424100001,"(41.96864072747715, -87.6890542408374)"
PULASKI AND ARMITAGE,1844.0,4000 W ARMITAGE AVENUE,05/13/2018,2,1149375.428872108,1913028.9842731808,41.917275069,-87.726622746,"(41.91727506940875, -87.72662274644799)"
TOUHY AND OSCEOLA,1244.0,7432 W TOUHY AVENUE,05/13/2018,2,1125717.010560011,1947269.685461107,42.011661765,-87.812781431,"(42.01166176507329, -87.81278143114147)"
VAN BUREN AND WESTERN,2054.0,2400 W VAN BUREN STREE,05/13/2018,9,,,,,
HALSTED AND MADISON,1872.0,1 N HALSTED STREET,05/13/2018,4,1171090.967986833,1900270.454015136,41.881815632,-87.64721471700001,"(41.88181563164203, -87.64721471704077)"
ARCHER AND CICERO,2084.0,5400 S ARCHER AVE,05/13/2018,3,1145209.426392053,1869810.657411975,41.798758208,-87.743020541,"(41.798758207843264, -87.74302054146467)"
WESTERN AND FOSTER,1072.0,5200 N WESTERN AVE,05/13/2018,6,1159372.922497116,1934478.3136740031,41.975933372,-87.689299589,"(41.97593337199358, -87.6892995891816)"
CENTRAL AND BELMONT,1604.0,5600 W BELMONT AVENUE,05/13/2018,2,1138453.617438343,1920755.972768412,41.938683775,-87.766562494,"(41.93868377475747, -87.76656249384537)"
CICERO AND NORTH,2033.0,4800 W NORTH AVENUE,05/13/2018,8,1144053.7337471629,1910243.80567041,41.90973389,-87.74624497299999,"(41.909733890131285, -87.74624497295898)"
ROOSEVELT AND HALSTED,2234.0,800 W ROOSEVELT ROAD,05/13/2018,12,1171199.282357741,1894968.0563937242,41.867263098,-87.646972686,"(41.86726309836901, -87.64697268601648)"
CENTRAL AND ADDISON,1683.0,5600 W ADDISON STREET,05/13/2018,3,1138349.6633025021,1923416.02157061,41.945985104,-87.76687995200001,"(41.94598510430888, -87.76687995165918)"
ASHLAND AND 95TH,2472.0,9500 S ASHLAND AVENUE,05/13/2018,9,1167295.830128711,1841695.121217916,41.721160612,-87.662828139,"(41.72116061205213, -87.66282813939165)"
PULASKI AND DIVERSEY,1542.0,2800 N PULASKI ROAD,05/13/2018,2,1149200.724531183,1918332.222549679,41.931831026,-87.72712687299999,"(41.93183102561505, -87.72712687300454)"
HARLEM AND BELMONT,1394.0,7200 W BELMONT AVE,05/13/2018,1,1127504.698153561,1920475.4154408441,41.938105479,-87.806809552,"(41.93810547939496, -87.80680955240743)"
PULASKI AND IRVING PARK,1572.0,4000 N PULASKI ROAD,05/13/2018,3,1148970.255325552,1926313.600468643,41.953737051,-87.72776661200001,"(41.95373705144353, -87.72776661179896)"
MILWAUKEE AND MONTROSE,1364.0,5075 W MONTROSE AVENUE,05/13/2018,8,1141716.746618898,1928736.076639057,41.960522088000005,-87.754371424,"(41.96052208819935, -87.75437142402293)"
KEDZIE AND 63RD,2361.0,6300 S KEDZIE AVE,05/13/2018,2,1156097.505177228,1862668.0517750932,41.77894575,-87.70328311899999,"(41.77894575017997, -87.70328311900342)"
PULASKI AND CHICAGO,1982.0,800 N PULASKI ROAD,05/13/2018,5,1149538.444844035,1905079.034990625,41.895456456999995,-87.726230541,"(41.895456456825386, -87.72623054051289)"
KEDZIE AND 31ST,2134.0,3200 W 31ST STREET,05/13/2018,4,1155487.128005646,1883943.0611067931,41.8373395,-87.704950558,"(41.83733950029648, -87.70495055800411)"
PULASKI AND ARMITAGE,1843.0,4000 W ARMITAGE AVENUE,05/13/2018,6,1149375.428872108,1913028.9842731808,41.917275069,-87.726622746,"(41.91727506940875, -87.72662274644799)"
PETERSON AND WESTERN,1014.0,2400 W PETERSON,05/13/2018,12,1159214.211316277,1939825.301874586,41.99060901,-87.689735481,"(41.990609009807294, -87.68973548092968)"
PULASKI AND FULLERTON,1484.0,4000 W FULLERTON AVE,05/13/2018,11,1149303.081963737,1915695.2752226482,41.924593021999996,-87.72681926799999,"(41.92459302175305, -87.7268192684032)"
WENTWORTH AND GARFIELD,2261.0,5500 S WENTWORTH AVEN,05/13/2018,30,,,,,
WENTWORTH AND GARFIELD,2264.0,200 W GARFIELD BLVD,05/13/2018,14,1175889.574397302,1868551.750512227,41.794670385,-87.630547476,"(41.79467038468937, -87.63054747605638)"
IRVING PARK AND CALIFORNIA,1233.0,2800 W IRVING PARK ROA,05/13/2018,4,,,,,
HARLEM AND BELMONT,1391.0,3200 N HARLEM AVE,05/13/2018,4,1127481.020995451,1920467.613239239,41.938084468,-87.80689674899999,"(41.93808446822169, -87.80689674887883)"
ELSTON AND ADDISON,1402.0,3600 N ELSTON AVE,05/13/2018,1,1154106.95251778,1923731.0362110808,41.946549165,-87.708952626,"(41.94654916480637, -87.70895262603513)"
BROADWAY/SHERIDAN AND DEVON,1122.0,6400 N SHERIDAN ROAD,05/13/2018,5,1167087.1511941291,1942658.7049886892,41.998217921,-87.660695256,"(41.99821792053241, -87.6606952555721)"
KIMBALL AND DIVERSEY,1581.0,2800 N KIMBALL AVENUE,05/13/2018,2,,,,,
LAWRENCE AND CICERO,1041.0,4800 N CICERO AVE,05/13/2018,14,1143464.651785526,1931490.5518832032,41.968048007,-87.747875985,"(41.968048007293845, -87.74787598468126)"
HOLLYWOOD AND SHERIDAN,1343.0,1000 W HOLLYWOOD AVE,05/13/2018,2,1168580.2289264658,1938090.295189338,41.985649799,-87.65533580700001,"(41.98564979859328, -87.65533580655139)"
BELMONT AND KEDZIE,1373.0,3200 W BELMONT,05/13/2018,2,1154461.587940363,1921143.091003516,41.939440561,-87.707718516,"(41.93944056117365, -87.70771851630873)"
WESTERN AND FULLERTON,1671.0,2400 N WESTERN AVENUE,05/13/2018,8,1159923.309342995,1915897.778561358,41.924935944,-87.687790255,"(41.92493594409127, -87.68779025471278)"
ASHLAND AND FULLERTON,1651.0,2400 N ASHLAND AVENUE,05/13/2018,12,1165228.0733428379,1916032.319169157,41.92519389,-87.66829436299999,"(41.92519388981048, -87.66829436339881)"
MILWAUKEE AND DEVON,1272.0,6400 N MILWAUKEE AVEN,05/13/2018,1,1132463.750397878,1942107.9115076268,41.997382173000005,-87.788077674,"(41.99738217345368, -87.78807767391953)"
PULASKI AND 63RD,2343.0,4000 W 63RD ST,05/13/2018,4,1150768.346768175,1862564.615405259,41.77876739,-87.722823195,"(41.778767390084305, -87.72282319530368)"
63RD AND STATE,2714.0,1 E 63RD ST,05/13/2018,8,1177367.518733101,1863199.17768559,41.779949105,-87.62528955299999,"(41.779949104569106, -87.62528955333775)"
AUSTIN AND IRVING PARK,1163.0,6000 W IRVING PARK ROAD,05/13/2018,3,1135622.402636023,1926014.192063646,41.953163771999996,-87.776842593,"(41.95316377185154, -87.77684259284736)"
PULASKI AND 79TH,2494.0,4000 W 79TH STREET,05/13/2018,6,1151074.116357501,1851966.830243835,41.749679359,-87.721978345,"(41.74967935883473, -87.72197834524168)"
111TH AND HALSTED,2422.0,11100 S HALSTED ST,05/13/2018,7,1172923.657689312,1831209.0441792482,41.692263123000004,-87.64252268799999,"(41.692263123425136, -87.6425226876268)"
HALSTED AND FULLERTON,1704.0,800 W FULLERTON AVENUE,05/13/2018,2,1170525.624723311,1916208.4439927782,41.925562791,-87.648823641,"(41.92556279107417, -87.64882364145232)"
DIVERSEY AND WESTERN,1434.0,2400 W DIVERSEY AVENUE,05/13/2018,4,1159859.6484238359,1918576.255784305,41.932287183,-87.687950093,"(41.93228718299094, -87.6879500934122)"
CICERO AND 47TH,2204.0,4800 W 47TH ST,05/13/2018,11,1145130.0489257441,1873078.44198302,41.807727017,-87.74322936600001,"(41.80772701677172, -87.74322936566276)"
ROOSEVELT AND PULASKI,2314.0,4000 W ROOSEVELT ROAD,05/13/2018,10,1149885.032049683,1894449.4640768818,41.866281003000005,-87.72523422,"(41.866281002664536, -87.72523421983905)"
ASHLAND AND DIVISION,1793.0,1600 W DIVISION STREET,05/13/2018,1,1165489.684200442,1908112.312963909,41.903455316,-87.66755899399999,"(41.903455316483814, -87.66755899396976)"
HALSTED AND DIVISION,1714.0,800 W DIVISION,05/13/2018,3,1170767.827960358,1908259.6441516618,41.903745557,-87.648167011,"(41.90374555734733, -87.64816701062779)"
CICERO AND NORTH,2034.0,4800 W NORTH AVENUE,05/13/2018,4,1144053.7337471629,1910243.80567041,41.90973389,-87.74624497299999,"(41.909733890131285, -87.74624497295898)"
HALSTED AND NORTH,1764.0,800 W NORTH AVENUE,05/13/2018,6,1170700.68422007,1910913.190749698,41.91102851,-87.648335806,"(41.91102850981186, -87.64833580602037)"
SACRAMENTO AND CHICAGO,1814.0,3000 W CHICAGO AVENUE,05/13/2018,5,1156075.266375505,1905216.6047707181,41.895704525,-87.702218524,"(41.895704524946225, -87.70221852353758)"
CENTRAL AND CHICAGO,1972.0,800 N CENTRAL AVENUE,05/13/2018,8,1138836.562608552,1904801.732832435,41.894896579,-87.765543258,"(41.89489657939746, -87.76554325845893)"
ASHLAND AND 87TH,2452.0,8700 S ASHLAND AVE,05/13/2018,1,1167150.470087748,1846991.212339794,41.735696989000004,-87.663209544,"(41.73569698863625, -87.66320954445679)"
87TH AND VINCENNES,2412.0,8700 S VINCENNES,05/13/2018,16,1172026.328989535,1847142.4966437758,41.736006565,-87.645341819,"(41.73600656458518, -87.64534181897955)"
MILWAUKEE AND DEVON,1274.0,6400 W DEVON AVENUE,05/13/2018,4,1132590.619798275,1942138.532048656,41.997463980999996,-87.78761024299999,"(41.99746398102873, -87.78761024341388)"
KOSTNER AND NORTH,2011.0,1600 N KOSTNER,05/13/2018,2,1146732.108679105,1910282.120990798,41.909788304,-87.736404667,"(41.90978830394343, -87.73640466739216)"
WESTERN AND MARQUETTE,2672.0,6700 S WESTERN AVENUE,05/13/2018,8,1161488.747635042,1860134.788366884,41.771884028,-87.68358840200001,"(41.77188402771193, -87.68358840206334)"
PULASKI AND IRVING PARK,1574.0,4000 W IRVING PARK RD,05/13/2018,8,1148988.727877253,1926320.9549384092,41.953756874,-87.72769851299999,"(41.95375687447515, -87.72769851312907)"
AUSTIN AND ADDISON,1493.0,6000 W ADDISON STREET,05/13/2018,4,1135698.173154422,1923360.229527805,41.945879676,-87.776627421,"(41.94587967559099, -87.77662742093737)"
OGDEN AND KOSTNER,2223.0,4400 W OGDEN AVENUE,05/13/2018,7,1147406.592439224,1887689.099869462,41.847777523000005,-87.734505969,"(41.84777752280453, -87.73450596874825)"
RIDGE AND CLARK,1052.0,5930 N CLARK STREET,05/13/2018,3,1164554.784723473,1939388.5115164418,41.98929863,-87.67010412100001,"(41.98929863013193, -87.67010412112992)"
MICHIGAN AND JACKSON,3043.0,100 E JACKSON BLVD,05/13/2018,7,1177358.4278512679,1899073.064228489,41.878390124,-87.624237311,"(41.87839012377354, -87.62423731128155)"
DAMEN AND DIVERSEY,1462.0,2800 N DAMEN AVENUE,05/13/2018,4,1162490.04851994,1918611.623717091,41.932329494,-87.678282719,"(41.9323294940985, -87.67828271931386)"
AUSTIN AND ADDISON,1491.0,3600 N AUSTIN AVENUE,05/13/2018,4,1135691.599896458,1923335.967306169,41.945813215,-87.776652162,"(41.9458132146695, -87.77665216156436)"
ADDISON AND HARLEM,1591.0,3600 N HARLEM AVENUE,05/13/2018,1,1127394.594070737,1923110.532422811,41.945338412,-87.807154769,"(41.94533841246591, -87.80715476912044)"
FOSTER AND BROADWAY,1111.0,5200 N BROADWAY ST,05/13/2018,5,1167334.508577915,1934714.0083465318,41.976412143000005,-87.660015082,"(41.97641214294823, -87.66001508205365)"
KEDZIE AND 26TH,2381.0,2600 S KEDZIE AVENUE,05/13/2018,5,1155404.235510285,1886524.460033054,41.844424831,-87.70518545200001,"(41.84442483084393, -87.70518545233183)"
PULASKI AND BELMONT,1382.0,3200 N PULASKI RD,05/13/2018,5,1149125.621478734,1920994.556178086,41.939138154,-87.72733371,"(41.939138153500274, -87.7273337101426)"
71ST AND ASHLAND,2394.0,1600 W 71ST,05/13/2018,6,1166890.012333149,1857674.2502246997,41.765018306,-87.66385923,"(41.76501830555763, -87.66385923012646)"
HAMLIN AND MADISON,1901.0,0 N HAMLIN BOULEVARD,05/13/2018,5,,,,,
119TH AND HALSTED,2402.0,11900 S HALSTED,05/13/2018,13,1173094.774616191,1825911.054609338,41.677720829,-87.642051845,"(41.67772082924762, -87.64205184498218)"
LAFAYETTE AND 87TH,2502.0,8700 S LAFAYETTE AVEN,05/13/2018,22,1177417.493180297,1847243.988223464,41.73616511,-87.62558756899999,"(41.73616511008592, -87.62558756899932)"
ELSTON AND IRVING PARK,1503.0,3700 W IRVING PARK ROA,05/13/2018,3,,,,,
CICERO AND HARRISON,2023.0,4800 W HARRISON STREET,05/13/2018,6,1144451.867388303,1896949.5619594632,41.873245464,-87.74511717899999,"(41.873245464379586, -87.7451171788807)"
4700 WESTERN,2141.0,4700 S WESTERN AVENUE,05/13/2018,3,1161120.438879703,1873431.066474726,41.808378408,-87.68457071700001,"(41.808378407946726, -87.68457071689552)"
87TH AND VINCENNES,2413.0,848 W 87TH STREET,05/13/2018,9,1172002.531006759,1847197.326168367,41.736157546,-87.6454274,"(41.73615754630335, -87.64542740049411)"
PULASKI AND 79TH,2492.0,7900 S PULASKI ROAD,05/13/2018,5,1151054.87395657,1851842.663854121,41.749339,-87.72205209100001,"(41.74933900008238, -87.72205209091501)"
HALSTED AND NORTH,1761.0,1600 N HALSTED STREET,05/13/2018,5,1170678.283433825,1910880.9913975468,41.910940644,-87.64841904299999,"(41.91094064391597, -87.64841904272998)"
CENTRAL AND ADDISON,1682.0,3600 N CENTRAL AVENUE,03/17/2017,2,1138343.117435682,1923392.067464765,41.945919491,-87.766904594,"(41.945919490555106, -87.76690459426293)"
CALIFORNIA AND DEVON,1321.0,6400 N CALIFORNIA AVE,05/13/2018,1,1156461.1502454008,1942370.37710537,41.997649133,-87.699792629,"(41.997649133049336, -87.69979262891378)"
CICERO AND I55,2251.0,4200 S CICERO AVENUE,05/13/2018,65,1145023.742859509,1876358.2768355191,41.816729386999995,-87.74353671200001,"(41.81672938674739, -87.74353671247594)"
CENTRAL AND IRVING PARK,1182.0,4000 N CENTRAL AVENUE,05/13/2018,2,1138258.614129764,1926071.1728849318,41.953272751,-87.76715015100001,"(41.95327275103541, -87.76715015131407)"
CENTRAL AND LAKE,1743.0,5600 W LAKE STREET,05/13/2018,3,1138951.495695032,1902230.5104657332,41.887838735,-87.76518366299999,"(41.887838735330206, -87.76518366338465)"
HOLLYWOOD AND SHERIDAN,1344.0,1000 W HOLLYWOOD AVE,05/13/2018,25,1168580.2289264658,1938090.295189338,41.985649799,-87.65533580700001,"(41.98564979859328, -87.65533580655139)"
AUSTIN AND IRVING PARK,1161.0,4000 N AUSTIN AVENUE,05/13/2018,6,1135599.956110927,1926006.8626199858,41.953144059,-87.776925284,"(41.95314405904539, -87.77692528423394)"
ASHLAND AND FULLERTON,1652.0,2400 N ASHLAND AVENUE,05/13/2018,18,1165228.0733428379,1916032.319169157,41.92519389,-87.66829436299999,"(41.92519388981048, -87.66829436339881)"
CALIFORNIA AND PETERSON,1313.0,2800 W PETERSON AVENUE,05/13/2018,1,1156569.515341857,1939784.830544118,41.990552082,-87.69946439600001,"(41.990552081681564, -87.69946439622785)"
CALIFORNIA AND DIVERSEY,1511.0,2800 N CALIFORNIA AVE,05/13/2018,8,1157189.355049829,1918495.6447540692,41.932120719000004,-87.6977653,"(41.93212071910647, -87.69776530036465)"
WESTERN AND CHICAGO,1941.0,800 N WESTERN AVE,05/13/2018,4,1160220.9679786079,1905277.507115921,41.895786955,-87.68699058600001,"(41.89578695485361, -87.68699058611217)"
55TH AND WESTERN,2213.0,2400 W 55TH STREET,05/13/2018,7,1161277.0127305991,1868185.749490228,41.793981347,-87.684141741,"(41.7939813465735, -87.68414174128355)"
WESTERN AND DEVON,1211.0,6400 N WESTERN AVENUE,05/13/2018,1,1159113.5857594342,1942451.622367891,41.997817807,-87.690033035,"(41.997817807026, -87.69003303469276)"
JEFFERY AND 95TH,2523.0,2000 E 95TH ST,05/13/2018,3,1191188.381103057,1842410.411853539,41.722579473,-87.57529252299999,"(41.722579473126416, -87.57529252250366)"
ELSTON AND LAWRENCE,1282.0,4800 N ELSTON AVENUE,05/13/2018,2,1145529.344259918,1931501.6012689832,41.968039361,-87.740283894,"(41.96803936143674, -87.74028389448999)"
99TH AND HALSTED,2431.0,9900 S HALSTED ST,05/13/2018,15,1172689.754200318,1839171.652197216,41.714118868,-87.643145408,"(41.714118868089905, -87.64314540818165)"
WESTERN AND CHICAGO,1943.0,2400 W CHICAGO AVE,05/13/2018,1,1160226.686812944,1905300.904544474,41.895851041,-87.686968935,"(41.895851041123755, -87.68696893468467)"
WESTERN AND FOSTER,1074.0,2400 W FOSTER AVE,05/13/2018,15,1159379.402846887,1934502.7124861318,41.97600019,-87.689275084,"(41.97600018976586, -87.68927508385399)"
ASHLAND AND MADISON,1911.0,0 N ASHLAND AVE,05/13/2018,3,,,,,
HOMAN/KIMBALL AND NORTH,1771.0,1600 N HOMAN AVENUE,05/13/2018,1,,,,,
KEDZIE AND 31ST,2132.0,3100 S KEDZIE AVENUE,05/13/2018,2,1155483.167539854,1883867.660503274,41.837132671,-87.704967115,"(41.837132671422296, -87.70496711478727)"
CICERO AND CHICAGO,1783.0,4800 W CHICAGO AVENUE,05/13/2018,2,1144175.291152764,1904916.2552252791,41.895112219,-87.74593242700001,"(41.89511221857764, -87.74593242701515)"
ROOSEVELT AND HALSTED,2233.0,800 W ROOSEVELT ROAD,05/13/2018,11,1171199.282357741,1894968.0563937242,41.867263098,-87.646972686,"(41.86726309836901, -87.64697268601648)"
JEFFERY AND 95TH,2522.0,9500 S JEFFERY AVE,05/13/2018,2,1191132.420601301,1842335.735988875,41.722375907,-87.575499903,"(41.72237590704101, -87.57549990332795)"
WESTERN AND CERMAK,1003.0,2400 W CERMAK ROAD,05/13/2018,1,1160678.000607329,1889375.645335924,41.852141307,-87.68575264200001,"(41.85214130680468, -87.6857526415569)"
HOMAN/KIMBALL AND NORTH,1773.0,3400 W NORTH AVE,05/13/2018,4,1153386.578905125,1910465.87061722,41.910162846999995,-87.711953868,"(41.91016284680269, -87.71195386769125)"
IRVING PARK AND KILPATRICK,2764.0,4700 W IRVING PARK ROA,05/13/2018,3,,,,,
CENTRAL AND IRVING PARK,1183.0,5600 W IRVING PARK ROAD,05/13/2018,5,1138281.535484986,1926078.647777633,41.953292847,-87.76706570799999,"(41.953292847298, -87.76706570775266)"
SHERIDAN AND FOSTER,1132.0,5200 N SHERIDAN ROAD,05/13/2018,3,1168661.6237182291,1934753.842272756,41.976492721,-87.655133605,"(41.97649272077833, -87.65513360456677)"
CORTLAND AND ASHLAND,1723.0,1600 W CORTLAND ST,05/13/2018,1,1165377.660768235,1912768.773647285,41.916235336999996,-87.66783777200001,"(41.91623533746878, -87.66783777212962)"
PULASKI AND FOSTER,1102.0,5200 N PULASKI RD,05/13/2018,3,1148746.251286324,1934286.9143619759,41.97562074,-87.728383135,"(41.97562073966174, -87.72838313514907)"
MADISON AND WESTERN,1931.0,1 S WESTERN AVE,05/13/2018,5,1160453.827721979,1899933.7034737458,41.881118279,-87.686283339,"(41.881118278833966, -87.686283338873)"
DIVERSEY AND AUSTIN,1454.0,6000 W DIVERSEY AVENUE,05/13/2018,2,1135895.7361693429,1918029.70673837,41.931248624,-87.776028612,"(41.931248623643455, -87.77602861172493)"
CICERO AND ADDISON,1611.0,3600 N CICERO AVENUE,05/13/2018,11,1143698.904601495,1923517.005821035,41.946163524,-87.747215169,"(41.94616352362556, -87.74721516897007)"
CLARK AND FULLERTON,1631.0,2400 N CLARK ST,05/13/2018,4,1172749.562209477,1916238.997132859,41.925597623,-87.64065097299999,"(41.925597623023144, -87.64065097309872)"
IRVING PARK AND KILPATRICK,2763.0,4700 W IRVING PARK ROA,05/13/2018,5,,,,,
DAMEN AND ELSTON,3072.0,2426 N DAMEN AVE,05/13/2018,11,1162561.16172213,1916207.783017816,41.925731714,-87.678088896,"(41.925731713685686, -87.67808889622799)"
HALSTED AND DIVISION,1711.0,1200 N HALSTED,05/13/2018,8,1170746.639428735,1908242.256010774,41.903698308,-87.648245351,"(41.90369830765008, -87.64824535062563)"
79TH AND HALSTED,2543.0,800 W 79TH STREET,05/13/2018,5,1172320.105719411,1852517.9814433998,41.750751156999996,-87.64410779299999,"(41.75075115747316, -87.64410779300933)"
KIMBALL AND DIVERSEY,1583.0,3400 W DIVERSEY AVENUE,05/13/2018,1,1153211.149172713,1918454.477800566,41.932087747,-87.71238583,"(41.932087747378944, -87.71238582951281)"
ELSTON AND ADDISON,1403.0,3216 W ADDISON ST,05/13/2018,12,1154199.729816868,1923799.345386665,41.946734755,-87.708609774,"(41.946734754927796, -87.7086097735515)"
79TH AND KEDZIE,2443.0,3200 W 79TH ST,05/13/2018,5,1156402.644780165,1852104.6493709842,41.749952001,-87.702448478,"(41.74995200142266, -87.70244847808695)"
HALSTED AND MADISON,1871.0,1 S HALSTED STREET,05/13/2018,2,1171092.392868784,1900234.542088741,41.881717056,-87.647210539,"(41.88171705561901, -87.64721053920604)"
STONEY ISLAND AND 79TH,2464.0,1600 E 79TH ST,05/13/2018,3,1188284.704439907,1852964.829047574,41.751611523,-87.585592284,"(41.75161152327319, -87.58559228428787)"
KOSTNER AND NORTH,2013.0,4400 W NORTH,05/13/2018,4,1146738.551618032,1910309.5953680319,41.909863573,-87.73638029600001,"(41.90986357340246, -87.73638029605371)"
CERMAK AND PULASKI,2332.0,2200 S PULASKI,05/13/2018,2,1150012.8768382429,1889071.75851865,41.851521442,-87.72490478700001,"(41.85152144233116, -87.7249047867499)"
STONY ISLAND/CORNELL AND 67TH,2721.0,6700 S STONY ISLAND A,05/13/2018,8,1187984.143047539,1860863.338367666,41.773292896,-87.586442368,"(41.77329289585066, -87.58644236831432)"
WESTERN AND 63RD,2371.0,6300 S WESTERN AVE,05/13/2018,1,1161415.712688877,1862772.38856596,41.779123484,-87.683783099,"(41.77912348383963, -87.68378309863576)"
35TH AND WESTERN,2092.0,3500 S WESTERN,05/13/2018,1,1160894.9498571008,1881376.851112895,41.830187255,-87.685177925,"(41.83018725526863, -87.68517792510231)"
CICERO AND PETERSON,1202.0,6000 N CICERO AVENUE,05/13/2018,3,1143247.733553094,1939479.3429057042,41.989973915,-87.74847302399999,"(41.98997391514614, -87.74847302426933)"
LARAMIE AND MADISON,2044.0,5200 W MADISON STREET,05/13/2018,9,1141706.965522802,1899567.55684314,41.880480752,-87.75513043299999,"(41.88048075170171, -87.75513043296509)"
WESTERN AND 63RD,2373.0,2400 W 63RD ST,05/13/2018,1,1161444.4157585842,1862848.5347036582,41.779331844,-87.683675761,"(41.77933184429814, -87.68367576084798)"
PULASKI AND FOSTER,1104.0,4000 W FOSTER AVE,05/13/2018,10,1148759.16134887,1934294.249006446,41.975640616,-87.728335469,"(41.975640616231914, -87.72833546926573)"
FOSTER AND NORTHWEST HIGHWAY,3003.0,5616 W FOSTER AVE,05/13/2018,3,1137626.093281239,1934273.239128334,41.97579142,-87.769276893,"(41.975791419680704, -87.76927689293382)"
CICERO AND CHICAGO,1781.0,800 N CICERO AVENUE,05/13/2018,6,1144169.162482127,1904893.189220372,41.895049038,-87.74595551600001,"(41.89504903796389, -87.74595551626888)"
WESTERN AND 79TH,2484.0,2400 W 79TH ST,05/13/2018,1,1161758.68085177,1852242.255513454,41.750220168,-87.68281769299999,"(41.75022016799851, -87.68281769253687)"
SACRAMENTO AND LAKE,1821.0,150 N SACRAMENTO BOUL,05/13/2018,29,1156319.560664766,1900957.4893519618,41.884012178,-87.701436479,"(41.88401217771363, -87.7014364786693)"
ASHLAND AND IRVING PARK,1153.0,1600 W IRVING PARK ROA,05/13/2018,4,,,,,
35TH AND WESTERN,2091.0,3500 S WESTERN,05/13/2018,7,1160894.9498571008,1881376.851112895,41.830187255,-87.685177925,"(41.83018725526863, -87.68517792510231)"
CICERO AND WASHINGTON,1891.0,100 N CICERO AVENUE,05/13/2018,6,1144328.984091479,1900095.1708384592,41.88187971,-87.74548924700001,"(41.88187970991601, -87.7454892473012)"
IRVING PARK AND CALIFORNIA,1234.0,2800 W IRVING PARK ROA,05/13/2018,2,,,,,
WESTERN AND MARQUETTE,2674.0,2400 W MARQUETTE ROAD,05/13/2018,5,1161509.889315231,1860208.6274041259,41.772086214,-87.683508858,"(41.772086214104526, -87.68350885781568)"
KEDZIE AND ARMITAGE,1832.0,2000 N KEDZIE AVENUE,05/13/2018,7,1154684.031809326,1913129.496340896,41.917446172,-87.707116072,"(41.91744617191702, -87.70711607187832)"
ELSTON AND LAWRENCE,1284.0,4440 W LAWRENCE AVENUE,05/13/2018,3,1145715.061027481,1931571.0474838002,41.968226398,-87.739599251,"(41.96822639754791, -87.73959925065756)"
PULASKI AND ARCHER,2153.0,5000 S ARCHER AVE,05/13/2018,6,1150501.818909837,1871162.311703322,41.802365973,-87.72357676600001,"(41.80236597333895, -87.72357676611004)"
WESTERN AND ADDISON,1563.0,2400 W ADDISON,05/13/2018,7,1159719.041544334,1923878.5772757968,41.946839991,-87.688320193,"(41.9468399910054, -87.68832019252964)"
WESTERN AND TOUHY,1252.0,7200 N WESTERN AVENUE,05/13/2018,2,1158975.66256211,1947754.2869633608,42.012371335,-87.69039391700001,"(42.012371334791766, -87.69039391737863)"
FULLERTON AND NARRAGANSETT,1554.0,6400 W FULLERTON AVENU,05/13/2018,5,1133317.594499059,1915293.661305931,41.923786189,-87.78556720600001,"(41.92378618871128, -87.78556720562165)"
ASHLAND AND MADISON,1914.0,1600 W MADISON,05/13/2018,4,1165723.014733182,1900136.5154895058,41.881564167,-87.66692946299999,"(41.8815641670199, -87.66692946294842)"
119TH AND HALSTED,2404.0,800 W 119TH STREET,05/13/2018,8,1173111.174088158,1825985.001014405,41.677923389,-87.641989646,"(41.677923389134385, -87.64198964584013)"
ASHLAND AND 95TH,2473.0,1600 W 95TH STREET,05/13/2018,6,1167323.753394196,1841755.0292213818,41.721324412,-87.662724153,"(41.721324411975246, -87.66272415265087)"
CENTRAL AND MILWAUKEE,3032.0,5232 N CENTRAL AVE,05/13/2018,6,1137802.482559734,1934544.3605564882,41.976532211,-87.768621661,"(41.976532211352456, -87.76862166095856)"
79TH AND HALSTED,2541.0,7900 S HALSTED STREET,05/13/2018,3,1172298.707400847,1852444.344822186,41.750549559,-87.64418836799999,"(41.750549559438944, -87.64418836784098)"
LAWRENCE AND WESTERN,1193.0,2400 W LAWRENCE AVENUE,05/13/2018,5,1159482.648570304,1931851.989492596,41.968724349,-87.688968727,"(41.96872434882172, -87.68896872699601)"
CICERO AND 47TH,2202.0,4700 S CICERO AVE,05/13/2018,5,1145112.150373471,1873006.659918126,41.807530373,-87.743296821,"(41.80753037289406, -87.7432968212423)"
CALIFORNIA AND DEVON,1323.0,2800 W DEVON AVENUE,05/13/2018,1,1156484.528078038,1942377.980662191,41.997669523,-87.699706423,"(41.99766952286052, -87.69970642324591)"
ASHLAND AND IRVING PARK,1151.0,4000 N ASHLAND AVENUE,05/13/2018,2,1164899.463802581,1926665.661118925,41.954379326,-87.66919912,"(41.954379326212695, -87.66919911980419)"
CICERO AND PETERSON,1204.0,4800 W PETERSON AVENUE,05/13/2018,1,1143273.766829016,1939491.9446451268,41.990008007,-87.748376951,"(41.99000800729908, -87.74837695118997)"
WESTERN AND 79TH,2481.0,7900 S WESTERN AVE,05/13/2018,4,1161711.516404028,1852181.6856861182,41.750054934,-87.682992203,"(41.750054933649984, -87.68299220290213)"
ARCHER AND CICERO,2081.0,5200 S CICERO AVE,05/13/2018,37,1145195.9319897771,1869737.7083066232,41.798558278,-87.74307186600001,"(41.798558278193305, -87.74307186616427)"
CICERO AND FULLERTON,1472.0,2400 N CICERO AVE,05/13/2018,2,1143961.592189569,1915545.343094087,41.92428359,-87.74645019,"(41.92428358982701, -87.74645019028947)"
LAFAYETTE AND 87TH,2503.0,30 W 87TH STREET,05/13/2018,46,1177407.6518002371,1847320.7720583118,41.736376037,-87.625621311,"(41.736376036604916, -87.62562131092602)"
LAKE SHORE DR AND BELMONT,1413.0,400 W BELMONT AVE,05/13/2018,65,1172981.7448693821,1921577.3761288018,41.940241193,-87.63963911399999,"(41.94024119325571, -87.63963911427594)"
KOSTNER AND NORTH,2012.0,4400 W GRAND AVE,05/13/2018,5,1146773.519128439,1910425.663958581,41.91018141,-87.73624887,"(41.910181409597406, -87.73624887040725)"
75TH AND STATE,2621.0,7500 S STATE STREET,05/13/2018,31,1177538.763040612,1855235.551345519,41.758092176,-87.624902228,"(41.75809217638291, -87.6249022282473)"
PULASKI AND FULLERTON,1481.0,2400 N PULASKI RD,05/13/2018,2,1149275.963864089,1915687.6319317569,41.924572574,-87.726919111,"(41.92457257416937, -87.72691911144182)"
LAKE SHORE DR AND BELMONT,1412.0,3200 N LAKESHORE DRIV,05/13/2018,9,1173053.220555078,1921821.380831705,41.940909163,-87.63936916,"(41.94090916326764, -87.63936915995522)"
KEDZIE AND 63RD,2364.0,3200 W 63RD ST,05/13/2018,2,1156103.348831225,1862717.5652107392,41.779081505,-87.703260365,"(41.77908150488341, -87.70326036544745)"
63RD AND STATE,2712.0,6300 S STATE ST,05/13/2018,14,1177303.801895084,1863220.2167559231,41.780008277,-87.625522512,"(41.78000827740796, -87.6255225119157)"
HALSTED AND FULLERTON,1701.0,2400 N HALSTED STREET,05/13/2018,5,1170501.602639925,1916200.061550148,41.925540315,-87.64891215600001,"(41.925540315431995, -87.64891215551155)"
IRVING PARK AND LARAMIE,1533.0,5200 W IRVING PARK ROA,05/13/2018,5,,,,,
PULASKI AND LAWRENCE,1173.0,4000 W LAWRENCE AVENUE,05/13/2018,4,1148844.2200856009,1931638.45430438,41.968351285,-87.728091672,"(41.96835128527914, -87.72809167198088)"
75TH AND STATE,2624.0,1 E 75TH STREET,05/13/2018,13,1177601.72646404,1855229.486604181,41.758074111,-87.624671658,"(41.75807411097799, -87.62467165835182)"
CENTRAL AND FULLERTON,1444.0,5600 W FULLERTON AVENU,05/13/2018,3,1138627.2791894209,1915438.969256439,41.924090199,-87.76605353,"(41.92409019883488, -87.76605353016079)"
LARAMIE AND FULLERTON,1421.0,2400 N LARAMIE AVENUE,05/13/2018,1,1141282.877477884,1915479.163971956,41.924151874,-87.756294662,"(41.92415187425276, -87.75629466175003)"
PULASKI AND DIVISION,1802.0,1200 N PULASKI ROAD,05/13/2018,2,1149459.590666926,1907723.219884254,41.902713901999995,-87.72645145700001,"(41.902713901936174, -87.72645145715836)"
PETERSON AND WESTERN,1011.0,6000 N WESTERN AVE,05/13/2018,3,1159190.625032041,1939816.75471116,41.990586042,-87.68982247299999,"(41.99058604241958, -87.68982247294417)"
MICHIGAN AND JACKSON,3041.0,300 S MICHIGAN AVE,05/13/2018,10,1177299.435435548,1899009.612280663,41.878217345,-87.62445584,"(41.87821734531058, -87.62445584029679)"
CHICAGO AND CLARK,1964.0,100 W CHICAGO AVENUE,05/13/2018,7,1175374.528739575,1905745.47783364,41.896744346999995,-87.63132124799999,"(41.896744346875806, -87.63132124815151)"
LARAMIE AND MADISON,2043.0,5200 W MADISON STREET,05/13/2018,5,1141706.965522802,1899567.55684314,41.880480752,-87.75513043299999,"(41.88048075170171, -87.75513043296509)"
CICERO AND I55,2252.0,4200 S CICERO AVENUE,05/13/2018,15,1145023.742859509,1876358.2768355191,41.816729386999995,-87.74353671200001,"(41.81672938674739, -87.74353671247594)"
WESTERN AND NORTH,1851.0,1600 N WESTERN AVE,05/13/2018,4,1160077.474351131,1910605.013316134,41.910409024,-87.687370268,"(41.91040902362901, -87.687370268401)"
ROOSEVELT AND PULASKI,2311.0,1200 S PULASKI ROAD,05/13/2018,1,1149866.0022478641,1894375.839200384,41.866079336999995,-87.725305995,"(41.86607933722178, -87.7253059948758)"
MILWAUKEE AND MONTROSE,1362.0,4400 N MILWAUKEE AVEN,05/13/2018,1,1141643.943268783,1928770.256316239,41.96061723,-87.75463824,"(41.9606172296957, -87.75463824007085)"
PULASKI AND CHICAGO,1983.0,4000 W CHICAGO AVENUE,05/13/2018,12,1149561.8559396921,1905086.596446259,41.895476752,-87.72614436,"(41.89547675163723, -87.72614435991626)"
55TH AND WESTERN,2212.0,5500 S WESTERN AVE,05/13/2018,13,1161269.521335262,1867963.111601251,41.793370554,-87.684175377,"(41.79337055433029, -87.6841753767592)"
FOSTER AND NAGLE,1031.0,5200 N NAGLE,05/13/2018,9,1132529.656558223,1934201.702060651,41.97568567,-87.788020406,"(41.97568566971868, -87.78802040620296)"
NORTHWEST HIGHWAY AND FOSTER,3002.0,5200 N NORTHWEST HWY,05/13/2018,1,1137806.147689466,1934042.0344602168,41.975153719,-87.76862036,"(41.975153718866956, -87.76862036015007)"
KEDZIE AND 47TH,2101.0,4700 S KEDZIE AVE,05/13/2018,4,1155791.949302478,1873270.7784813268,41.808047271999996,-87.70411882200001,"(41.80804727165029, -87.70411882229871)"
MILWAUKEE AND CENTRAL,3022.0,5232 N MILWAUKEE AVE,05/13/2018,10,1138074.161743901,1934115.431678809,41.975350275,-87.767632985,"(41.97535027477604, -87.76763298459159)"
PULASKI AND 63RD,2342.0,6300 S PULASKI RD,05/13/2018,8,1150746.00309079,1862516.747695325,41.778636469,-87.72290635600001,"(41.77863646878099, -87.72290635568541)"
ADDISON AND HARLEM,1593.0,7200 W ADDISON,05/13/2018,4,1127417.488447099,1923123.407710965,41.945373358000005,-87.807070326,"(41.94537335809189, -87.80707032561135)"
CERMAK AND PULASKI,2334.0,4000 W CERMAK,05/13/2018,9,1150018.4760536659,1889120.238540361,41.851654369,-87.724882975,"(41.85165436867626, -87.7248829753078)"
55TH AND KEDZIE,2163.0,3200 W 55TH STREET,05/13/2018,3,1155966.956993183,1868015.593764152,41.793622803000005,-87.703618141,"(41.79362280329978, -87.70361814062049)"
55TH and PULASKI,2244.0,4000 W 55TH ST,05/13/2018,1,1150621.6769038609,1867864.274865394,41.793313334000004,-87.72322303799999,"(41.79331333358753, -87.72322303812588)"
STONEY ISLAND AND 79TH,2462.0,7900 S STONEY ISLAND,05/13/2018,5,1188181.5710682971,1852908.934789311,41.751460603000005,-87.58597199299999,"(41.75146060316686, -87.5859719929647)"
WESTERN AND ADDISON,1562.0,3600 N WESTERN AVENUE,05/13/2018,4,1159695.573342728,1923871.086283556,41.94681992,-87.688406662,"(41.94681991986288, -87.68840666206194)"
DAMEN AND 63RD,2701.0,6300 S DAMEN AVENUE,05/13/2018,2,1164069.4079432979,1862830.277442834,41.779226920999996,-87.674052731,"(41.77922692069256, -87.67405273137854)"
31ST ST AND MARTIN LUTHER KING DRIVE,2121.0,3100 S DR MARTIN L KING,05/13/2018,7,,,,,
COTTAGE GROVE AND 71ST,2572.0,7100 S COTTAGE GROVE,05/13/2018,2,1182746.23698699,1858088.011064538,41.765800350999996,-87.605729127,"(41.76580035131893, -87.6057291269901)"
STONY ISLAND/CORNELL AND 67TH,2731.0,6700 S CORNELL DRIVE,05/13/2018,5,1188316.454860734,1860851.137456735,41.77325149,-87.58522459999999,"(41.77325148959568, -87.58522459967712)"
LAWRENCE AND CICERO,1042.0,4800 N CICERO AVENUE,05/13/2018,12,1143464.651785526,1931490.5518832032,41.968048007,-87.747875985,"(41.968048007293845, -87.74787598468126)"
FULLERTON AND NARRAGANSETT,1553.0,6400 W FULLERTON AVENU,05/13/2018,2,1133317.594499059,1915293.661305931,41.923786189,-87.78556720600001,"(41.92378618871128, -87.78556720562165)"
CENTRAL AND DIVERSEY,1644.0,5600 W DIVERSEY AVENUE,05/13/2018,1,1138539.758528398,1918097.096677271,41.931385977,-87.766310532,"(41.93138597683265, -87.76631053155157)"
COLUMBUS AND ILLINOIS,1951.0,500 N COLUMBUS DRIVE,05/13/2018,8,1178372.808407292,1903693.06016042,41.891044569,-87.620371839,"(41.891044569124276, -87.620371839074)"
CALIFORNIA AND DIVERSEY,1514.0,2800 W DIVERSEY,05/13/2018,19,1157212.54253358,1918526.6744349431,41.932205395,-87.697679244,"(41.93220539506452, -87.6976792438691)"
CANAL AND ROOSEVELT,2291.0,1200 S CANAL STREET,05/13/2018,5,1173268.771030949,1894952.6348787318,41.867175125,-87.63937581299999,"(41.86717512472001, -87.63937581258092)"
HALSTED AND 95TH,2582.0,9500 S HALSTED STREET,05/13/2018,2,1172610.538363645,1841811.61926207,41.721365061,-87.643358042,"(41.72136506078306, -87.64335804234075)"
CALIFORNIA AND DIVERSEY,1513.0,2800 W DIVERSEY,05/13/2018,4,1157212.54253358,1918526.6744349431,41.932205395,-87.697679244,"(41.93220539506452, -87.6976792438691)"
BELMONT AND KEDZIE,1371.0,3200 N KEDZIE AVENUE,05/13/2018,1,1154426.977874407,1921110.4665495418,41.93935173,-87.707846594,"(41.93935173030961, -87.70784659359776)"
CICERO AND ARMITAGE,2001.0,2000 N CICERO AVENUE,05/13/2018,3,1144031.525719004,1912881.8300294997,41.916973325,-87.746260223,"(41.91697332451097, -87.74626022251057)"
111TH AND HALSTED,2424.0,800 W 111TH ST,05/13/2018,5,1172945.404219168,1831282.9170278818,41.692465363000004,-87.642440901,"(41.692465363421874, -87.64244090105778)"
WESTERN AND DEVON,1212.0,6400 N WESTERN AVENUE,05/13/2018,1,1159113.5857594342,1942451.622367891,41.997817807,-87.690033035,"(41.997817807026, -87.69003303469276)"
STATE AND 79TH,2654.0,1 E 79TH STREET,05/13/2018,4,1177680.113652821,1852598.313477786,41.750852095999996,-87.624463832,"(41.75085209551078, -87.62446383210285)"
SHERIDAN AND FOSTER,1134.0,1000 W FOSTER AVE,05/13/2018,3,1168689.247756979,1934758.5781416541,41.976505116,-87.655031882,"(41.97650511595711, -87.65503188224778)"
FOSTER AND BROADWAY,1113.0,1200 W FOSTER AVE,05/13/2018,4,1167357.095930752,1934721.3932667768,41.97643192,-87.659931806,"(41.97643192018459, -87.65993180604016)"
LARAMIE AND MADISON,2044.0,5200 W MADISON STREET,05/19/2018,11,1141706.965522802,1899567.55684314,41.880480752,-87.75513043299999,"(41.88048075170171, -87.75513043296509)"
63RD AND STATE,2712.0,6300 S STATE ST,05/19/2018,6,1177303.801895084,1863220.2167559231,41.780008277,-87.625522512,"(41.78000827740796, -87.6255225119157)"
ELSTON AND LAWRENCE,1284.0,4440 W LAWRENCE AVENUE,05/19/2018,7,1145715.061027481,1931571.0474838002,41.968226398,-87.739599251,"(41.96822639754791, -87.73959925065756)"
PETERSON AND WESTERN,1011.0,6000 N WESTERN AVE,05/19/2018,3,1159190.625032041,1939816.75471116,41.990586042,-87.68982247299999,"(41.99058604241958, -87.68982247294417)"
SACRAMENTO AND LAKE,1821.0,150 N SACRAMENTO BOUL,05/19/2018,3,1156319.560664766,1900957.4893519618,41.884012178,-87.701436479,"(41.88401217771363, -87.7014364786693)"
CICERO AND FULLERTON,1474.0,4800 W FULLERTON AVE,05/19/2018,1,1143967.570794243,1915568.5049544768,41.924347036,-87.74642764,"(41.924347036010694, -87.74642763965628)"
PULASKI AND DIVISION,1802.0,1200 N PULASKI ROAD,05/19/2018,5,1149459.590666926,1907723.219884254,41.902713901999995,-87.72645145700001,"(41.902713901936174, -87.72645145715836)"
CALIFORNIA AND DIVERSEY,1511.0,2800 N CALIFORNIA AVE,05/19/2018,3,1157189.355049829,1918495.6447540692,41.932120719000004,-87.6977653,"(41.93212071910647, -87.69776530036465)"
PULASKI AND CHICAGO,1982.0,800 N PULASKI ROAD,05/10/2018,1,1149538.444844035,1905079.034990625,41.895456456999995,-87.726230541,"(41.895456456825386, -87.72623054051289)"
PULASKI AND 63RD,2342.0,6300 S PULASKI RD,05/19/2018,2,1150746.00309079,1862516.747695325,41.778636469,-87.72290635600001,"(41.77863646878099, -87.72290635568541)"
WESTERN AND CHICAGO,1943.0,2400 W CHICAGO AVE,05/19/2018,1,1160226.686812944,1905300.904544474,41.895851041,-87.686968935,"(41.895851041123755, -87.68696893468467)"
COLUMBUS AND ILLINOIS,1951.0,500 N COLUMBUS DRIVE,05/19/2018,8,1178372.808407292,1903693.06016042,41.891044569,-87.620371839,"(41.891044569124276, -87.620371839074)"
CORTLAND AND ASHLAND,1721.0,1900 N ASHLAND AVE,05/19/2018,18,1165348.084854857,1912736.4543355692,41.916147281,-87.66794735399999,"(41.91614728095272, -87.66794735350443)"
LAKE SHORE DR AND BELMONT,1412.0,3200 N LAKESHORE DRIV,05/19/2018,9,1173053.220555078,1921821.380831705,41.940909163,-87.63936916,"(41.94090916326764, -87.63936915995522)"
ADDISON AND HARLEM,1593.0,7200 W ADDISON,05/19/2018,2,1127417.488447099,1923123.407710965,41.945373358000005,-87.807070326,"(41.94537335809189, -87.80707032561135)"
HARLEM AND BELMONT,1394.0,7200 W BELMONT AVE,05/19/2018,2,1127504.698153561,1920475.4154408441,41.938105479,-87.806809552,"(41.93810547939496, -87.80680955240743)"
55TH and PULASKI,2244.0,4000 W 55TH ST,05/19/2018,4,1150621.6769038609,1867864.274865394,41.793313334000004,-87.72322303799999,"(41.79331333358753, -87.72322303812588)"
STONEY ISLAND AND 76TH,2632.0,7600 S STONY ISLAND A,05/09/2018,29,1188092.796191935,1854889.3541583042,41.756897173,-87.586234285,"(41.75689717260223, -87.58623428506996)"
PULASKI AND FOSTER,1102.0,5200 N PULASKI RD,05/19/2018,5,1148746.251286324,1934286.9143619759,41.97562074,-87.728383135,"(41.97562073966174, -87.72838313514907)"
ASHLAND AND DIVISION,1791.0,1200 N ASHLAND AVENUE,05/19/2018,6,1165466.997046718,1908083.767015974,41.903377468,-87.667643142,"(41.903377467566784, -87.66764314227497)"
MICHIGAN AND ONTARIO,3084.0,100 E ONTARIO ST,05/10/2018,3,1177006.928692496,1904549.656773295,41.893426147,-87.625362025,"(41.89342614670784, -87.62536202456768)"
KIMBALL AND DIVERSEY,1581.0,2800 N KIMBALL AVENUE,05/19/2018,5,,,,,
ROOSEVELT AND HALSTED,2234.0,800 W ROOSEVELT ROAD,05/19/2018,5,1171199.282357741,1894968.0563937242,41.867263098,-87.646972686,"(41.86726309836901, -87.64697268601648)"
HALSTED AND NORTH,1764.0,800 W NORTH AVENUE,05/19/2018,1,1170700.68422007,1910913.190749698,41.91102851,-87.648335806,"(41.91102850981186, -87.64833580602037)"
LARAMIE AND MADISON,2043.0,5200 W MADISON STREET,05/19/2018,4,1141706.965522802,1899567.55684314,41.880480752,-87.75513043299999,"(41.88048075170171, -87.75513043296509)"
CENTRAL AND BELMONT,1604.0,5600 W BELMONT AVENUE,05/19/2018,3,1138453.617438343,1920755.972768412,41.938683775,-87.766562494,"(41.93868377475747, -87.76656249384537)"
PULASKI AND CHICAGO,1983.0,4000 W CHICAGO AVENUE,05/19/2018,7,1149561.8559396921,1905086.596446259,41.895476752,-87.72614436,"(41.89547675163723, -87.72614435991626)"
DIVERSEY AND AUSTIN,1453.0,6000 W DIVERSEY AVENUE,05/19/2018,2,1135895.7361693429,1918029.70673837,41.931248624,-87.776028612,"(41.931248623643455, -87.77602861172493)"
FOSTER AND BROADWAY,1111.0,5200 N BROADWAY ST,05/19/2018,2,1167334.508577915,1934714.0083465318,41.976412143000005,-87.660015082,"(41.97641214294823, -87.66001508205365)"
75TH AND STATE,2621.0,7500 S STATE STREET,05/19/2018,20,1177538.763040612,1855235.551345519,41.758092176,-87.624902228,"(41.75809217638291, -87.6249022282473)"
DIVERSEY AND AUSTIN,1454.0,6000 W DIVERSEY AVENUE,05/19/2018,5,1135895.7361693429,1918029.70673837,41.931248624,-87.776028612,"(41.931248623643455, -87.77602861172493)"
CICERO AND HARRISON,2022.0,600 S CICERO AVENUE,05/10/2018,9,1144444.97442848,1896894.622216872,41.873094833,-87.745143869,"(41.873094832519136, -87.74514386884542)"
ELSTON AND LAWRENCE,1282.0,4800 N ELSTON AVENUE,05/19/2018,6,1145529.344259918,1931501.6012689832,41.968039361,-87.740283894,"(41.96803936143674, -87.74028389448999)"
CERMAK AND PULASKI,2332.0,2200 S PULASKI,05/19/2018,2,1150012.8768382429,1889071.75851865,41.851521442,-87.72490478700001,"(41.85152144233116, -87.7249047867499)"
BELMONT AND KEDZIE,1372.0,3200 N KEDZIE AVE,05/19/2018,19,1154426.977874407,1921110.4665495418,41.93935173,-87.707846594,"(41.93935173030961, -87.70784659359776)"
35TH AND WESTERN,2092.0,3500 S WESTERN,05/19/2018,3,1160894.9498571008,1881376.851112895,41.830187255,-87.685177925,"(41.83018725526863, -87.68517792510231)"
SACRAMENTO AND CHICAGO,1814.0,3000 W CHICAGO AVENUE,05/11/2018,5,1156075.266375505,1905216.6047707181,41.895704525,-87.702218524,"(41.895704524946225, -87.70221852353758)"
CICERO AND I55,2251.0,4200 S CICERO AVENUE,05/19/2018,90,1145023.742859509,1876358.2768355191,41.816729386999995,-87.74353671200001,"(41.81672938674739, -87.74353671247594)"
ADDISON AND HARLEM,1591.0,3600 N HARLEM AVENUE,05/19/2018,4,1127394.594070737,1923110.532422811,41.945338412,-87.807154769,"(41.94533841246591, -87.80715476912044)"
BROADWAY/SHERIDAN AND DEVON,1123.0,1200 W DEVON AVE,05/19/2018,4,1167109.644248166,1942688.147952186,41.998298228,-87.660611661,"(41.99829822771884, -87.66061166063517)"
STATE AND 79TH,2651.0,7900 S STATE STREET,05/19/2018,10,1177618.1669299658,1852621.8702328382,41.750918138,-87.624690123,"(41.7509181383154, -87.62469012251644)"
CALIFORNIA AND PETERSON,1313.0,2800 W PETERSON AVENUE,05/19/2018,4,1156569.515341857,1939784.830544118,41.990552082,-87.69946439600001,"(41.990552081681564, -87.69946439622785)"
BELMONT AND KEDZIE,1373.0,3200 W BELMONT,05/19/2018,3,1154461.587940363,1921143.091003516,41.939440561,-87.707718516,"(41.93944056117365, -87.70771851630873)"
DAMEN AND ELSTON,3072.0,2426 N DAMEN AVE,05/19/2018,11,1162561.16172213,1916207.783017816,41.925731714,-87.678088896,"(41.925731713685686, -87.67808889622799)"
MILWAUKEE AND DEVON,1274.0,6400 W DEVON AVENUE,05/19/2018,8,1132590.619798275,1942138.532048656,41.997463980999996,-87.78761024299999,"(41.99746398102873, -87.78761024341388)"
CLARK AND FULLERTON,1632.0,2400 N CLARK ST,05/19/2018,1,1172749.562209477,1916238.997132859,41.925597623,-87.64065097299999,"(41.925597623023144, -87.64065097309872)"
FOSTER AND NORTHWEST HIGHWAY,3003.0,5616 W FOSTER AVE,05/08/2018,5,1137626.093281239,1934273.239128334,41.97579142,-87.769276893,"(41.975791419680704, -87.76927689293382)"
MONTROSE AND WESTERN,1221.0,4400 N WESTERN AVENUE,05/19/2018,4,1159539.733234718,1929183.9180955018,41.961401846,-87.688832623,"(41.961401846278505, -87.6888326227788)"
LASALLE AND KINZIE,1923.0,140 W KINZIE,05/19/2018,3,1175048.09765242,1903028.8947602941,41.889297219,-87.63260164799999,"(41.88929721947309, -87.63260164817305)"
55TH AND WESTERN,2212.0,5500 S WESTERN AVE,05/19/2018,5,1161269.521335262,1867963.111601251,41.793370554,-87.684175377,"(41.79337055433029, -87.6841753767592)"
COTTAGE GROVE AND 71ST,2571.0,7100 S COTTAGE GROVE,05/19/2018,2,1182746.23698699,1858088.011064538,41.765800350999996,-87.605729127,"(41.76580035131893, -87.6057291269901)"
DAMEN AND 63RD,2702.0,6300 S DAMEN AVENUE,05/10/2018,3,1164069.4079432979,1862830.277442834,41.779226920999996,-87.674052731,"(41.77922692069256, -87.67405273137854)"
CICERO AND PETERSON,1202.0,6000 N CICERO AVENUE,05/19/2018,4,1143247.733553094,1939479.3429057042,41.989973915,-87.74847302399999,"(41.98997391514614, -87.74847302426933)"
IRVING PARK AND NARRAGANSETT,1024.0,6400 W IRVING PK,05/19/2018,2,1132945.939118726,1925946.304925137,41.953024751,-87.786683238,"(41.95302475075328, -87.78668323766634)"
ELSTON AND LAWRENCE,1284.0,4440 W LAWRENCE AVENUE,05/11/2018,8,1145715.061027481,1931571.0474838002,41.968226398,-87.739599251,"(41.96822639754791, -87.73959925065756)"
99TH AND HALSTED,2433.0,800 W 99TH ST,05/19/2018,26,1172710.6425656842,1839246.3306021432,41.714323336999996,-87.643066714,"(41.71432333701137, -87.64306671421937)"
CICERO AND NORTH,2033.0,4800 W NORTH AVENUE,05/19/2018,11,1144053.7337471629,1910243.80567041,41.90973389,-87.74624497299999,"(41.909733890131285, -87.74624497295898)"
DIVISION AND DAMEN,1734.0,2000 W DIVISION,05/19/2018,10,1162815.7108601942,1908034.672555531,41.903298793000005,-87.67738324700001,"(41.903298792681944, -87.67738324739636)"
PULASKI AND BELMONT,1382.0,3200 N PULASKI RD,05/19/2018,7,1149125.621478734,1920994.556178086,41.939138154,-87.72733371,"(41.939138153500274, -87.7273337101426)"
VAN BUREN AND WESTERN,2052.0,400 S WESTERN AVENUE,05/19/2018,28,1160431.682297829,1898091.9423715891,41.876064776,-87.686415631,"(41.87606477642526, -87.68641563098768)"
ASHLAND AND 95TH,2473.0,1600 W 95TH STREET,05/19/2018,3,1167323.753394196,1841755.0292213818,41.721324412,-87.662724153,"(41.721324411975246, -87.66272415265087)"
KEDZIE AND 63RD,2364.0,3200 W 63RD ST,05/19/2018,2,1156103.348831225,1862717.5652107392,41.779081505,-87.703260365,"(41.77908150488341, -87.70326036544745)"
MICHIGAN AND ONTARIO,3082.0,628 N MICHIGAN AVE,05/19/2018,27,1177278.716938521,1904554.133997858,41.893432274,-87.624363719,"(41.893432274200684, -87.62436371928398)"
HALSTED AND MADISON,1871.0,1 S HALSTED STREET,05/19/2018,3,1171092.392868784,1900234.542088741,41.881717056,-87.647210539,"(41.88171705561901, -87.64721053920604)"
ROOSEVELT AND HALSTED,2234.0,800 W ROOSEVELT ROAD,05/09/2018,10,1171199.282357741,1894968.0563937242,41.867263098,-87.646972686,"(41.86726309836901, -87.64697268601648)"
FOSTER AND BROADWAY,1113.0,1200 W FOSTER AVE,05/19/2018,1,1167357.095930752,1934721.3932667768,41.97643192,-87.659931806,"(41.97643192018459, -87.65993180604016)"
LAKE SHORE DR AND BELMONT,1413.0,400 W BELMONT AVE,05/19/2018,62,1172981.7448693821,1921577.3761288018,41.940241193,-87.63963911399999,"(41.94024119325571, -87.63963911427594)"
CALIFORNIA AND DEVON,1323.0,2800 W DEVON AVENUE,05/19/2018,1,1156484.528078038,1942377.980662191,41.997669523,-87.699706423,"(41.99766952286052, -87.69970642324591)"
87TH AND VINCENNES,2413.0,848 W 87TH STREET,05/19/2018,12,1172002.531006759,1847197.326168367,41.736157546,-87.6454274,"(41.73615754630335, -87.64542740049411)"
PULASKI AND ARMITAGE,1843.0,4000 W ARMITAGE AVENUE,05/19/2018,5,1149375.428872108,1913028.9842731808,41.917275069,-87.726622746,"(41.91727506940875, -87.72662274644799)"
MADISON AND WESTERN,1934.0,2400 W MADISON,05/19/2018,3,1160384.621277157,1899988.6557223732,41.881270504,-87.68653594,"(41.88127050428818, -87.68653594017124)"
CANAL AND ROOSEVELT,2294.0,500 W ROOSEVELT ROAD,05/09/2018,11,1173290.72186561,1895021.166235495,41.867362693000004,-87.639293195,"(41.867362692616666, -87.63929319464197)"
55TH and PULASKI,2242.0,5500 S PULASKI,05/19/2018,1,1150600.072649439,1867806.44512718,41.793155061,-87.723303765,"(41.793155060731024, -87.72330376464247)"
KOSTNER AND NORTH,2013.0,4400 W NORTH,05/10/2018,3,1146738.551618032,1910309.5953680319,41.909863573,-87.73638029600001,"(41.90986357340246, -87.73638029605371)"
PULASKI AND NORTH,1992.0,1600 N PULASKI AVENUE,05/19/2018,2,1149432.959240306,1910369.112502195,41.90997501,-87.72648052299999,"(41.909975010236906, -87.72648052306623)"
CENTRAL AND IRVING PARK,1182.0,4000 N CENTRAL AVENUE,05/19/2018,1,1138258.614129764,1926071.1728849318,41.953272751,-87.76715015100001,"(41.95327275103541, -87.76715015131407)"
HALSTED AND DIVISION,1714.0,800 W DIVISION,05/19/2018,4,1170767.827960358,1908259.6441516618,41.903745557,-87.648167011,"(41.90374555734733, -87.64816701062779)"
71ST AND ASHLAND,2391.0,7100 S ASHLAND,05/19/2018,2,1166868.379865725,1857616.168087255,41.764859382,-87.663940176,"(41.764859382425385, -87.66394017630476)"
WESTERN AND ADDISON,1562.0,3600 N WESTERN AVENUE,05/19/2018,5,1159695.573342728,1923871.086283556,41.94681992,-87.688406662,"(41.94681991986288, -87.68840666206194)"
KEDZIE AND ARMITAGE,1832.0,2000 N KEDZIE AVENUE,05/19/2018,9,1154684.031809326,1913129.496340896,41.917446172,-87.707116072,"(41.91744617191702, -87.70711607187832)"
CICERO AND HARRISON,2023.0,4800 W HARRISON STREET,05/19/2018,10,1144451.867388303,1896949.5619594632,41.873245464,-87.74511717899999,"(41.873245464379586, -87.7451171788807)"
CERMAK AND PULASKI,2334.0,4000 W CERMAK,05/19/2018,5,1150018.4760536659,1889120.238540361,41.851654369,-87.724882975,"(41.85165436867626, -87.7248829753078)"
SACRAMENTO AND LAKE,1822.0,150 N SACRAMENTO BOUL,05/11/2018,2,1156319.560664766,1900957.4893519618,41.884012178,-87.701436479,"(41.88401217771363, -87.7014364786693)"
CICERO AND I55,2251.0,4200 S CICERO AVENUE,05/09/2018,65,1145023.742859509,1876358.2768355191,41.816729386999995,-87.74353671200001,"(41.81672938674739, -87.74353671247594)"
WESTERN AND MARQUETTE,2672.0,6700 S WESTERN AVENUE,05/09/2018,5,1161488.747635042,1860134.788366884,41.771884028,-87.68358840200001,"(41.77188402771193, -87.68358840206334)"
CICERO AND ADDISON,1612.0,3600 N CICERO AVENUE,05/19/2018,2,1143698.904601495,1923517.005821035,41.946163524,-87.747215169,"(41.94616352362556, -87.74721516897007)"
STONEY ISLAND AND 76TH,2632.0,7600 S STONY ISLAND A,05/19/2018,29,1188092.796191935,1854889.3541583042,41.756897173,-87.586234285,"(41.75689717260223, -87.58623428506996)"
63RD AND STATE,2714.0,1 E 63RD ST,05/19/2018,9,1177367.518733101,1863199.17768559,41.779949105,-87.62528955299999,"(41.779949104569106, -87.62528955333775)"
CENTRAL AND FULLERTON,1444.0,5600 W FULLERTON AVENU,05/19/2018,2,1138627.2791894209,1915438.969256439,41.924090199,-87.76605353,"(41.92409019883488, -87.76605353016079)"
STONEY ISLAND AND 76TH,2631.0,7600 S STONY ISLAND A,05/19/2018,25,1188092.796191935,1854889.3541583042,41.756897173,-87.586234285,"(41.75689717260223, -87.58623428506996)"
MONTROSE AND WESTERN,1224.0,2400 W MONTROSE AVENUE,05/19/2018,3,1159562.971802959,1929191.3377012531,41.961421726,-87.68874698,"(41.961421726406314, -87.68874697983858)"
HAMLIN AND MADISON,1903.0,3800 W MADISON STREET,05/19/2018,2,1151032.709141294,1899784.033986533,41.880897273,-87.720881226,"(41.880897273491264, -87.72088122613924)"
FULLERTON AND NARRAGANSETT,1553.0,6400 W FULLERTON AVENU,05/19/2018,6,1133317.594499059,1915293.661305931,41.923786189,-87.78556720600001,"(41.92378618871128, -87.78556720562165)"
WENTWORTH AND GARFIELD,2261.0,5500 S WENTWORTH AVEN,05/09/2018,26,,,,,
HAMLIN AND LAKE,1882.0,300 N HAMLIN AVENUE,05/19/2018,4,1150970.026856642,1901381.688308858,41.885282636,-87.721069539,"(41.88528263580913, -87.72106953854511)"
119TH AND HALSTED,2404.0,800 W 119TH STREET,05/19/2018,7,1173111.174088158,1825985.001014405,41.677923389,-87.641989646,"(41.677923389134385, -87.64198964584013)"
DAMEN AND 63RD,2701.0,6300 S DAMEN AVENUE,05/19/2018,2,1164069.4079432979,1862830.277442834,41.779226920999996,-87.674052731,"(41.77922692069256, -87.67405273137854)"
ELSTON AND ADDISON,1403.0,3216 W ADDISON ST,05/19/2018,8,1154199.729816868,1923799.345386665,41.946734755,-87.708609774,"(41.946734754927796, -87.7086097735515)"
STONY ISLAND/CORNELL AND 67TH,2731.0,6700 S CORNELL DRIVE,05/19/2018,5,1188316.454860734,1860851.137456735,41.77325149,-87.58522459999999,"(41.77325148959568, -87.58522459967712)"
CLARK AND IRVING PARK,1093.0,1300 W IRVING PARK ROAD,05/19/2018,4,1166777.545456989,1926719.73687357,41.954487567,-87.662293496,"(41.95448756687966, -87.66229349585691)"
PULASKI AND NORTH,1994.0,4000 W NORTH AVENUE,05/10/2018,1,1149456.2688421998,1910376.774019002,41.909995582,-87.72639469299999,"(41.90999558160536, -87.72639469321471)"
75TH AND STATE,2624.0,1 E 75TH STREET,05/19/2018,17,1177601.72646404,1855229.486604181,41.758074111,-87.624671658,"(41.75807411097799, -87.62467165835182)"
79TH AND KEDZIE,2443.0,3200 W 79TH ST,05/19/2018,2,1156402.644780165,1852104.6493709842,41.749952001,-87.702448478,"(41.74995200142266, -87.70244847808695)"
SHERIDAN AND FOSTER,1132.0,5200 N SHERIDAN ROAD,05/19/2018,4,1168661.6237182291,1934753.842272756,41.976492721,-87.655133605,"(41.97649272077833, -87.65513360456677)"
MILWAUKEE AND MONTROSE,1364.0,5075 W MONTROSE AVENUE,05/19/2018,7,1141716.746618898,1928736.076639057,41.960522088000005,-87.754371424,"(41.96052208819935, -87.75437142402293)"
CENTRAL AND CHICAGO,1973.0,5600 W CHICAGO AVENUE,05/19/2018,5,1138858.856732452,1904825.827586656,41.894962293,-87.76546079100001,"(41.89496229349977, -87.76546079122906)"
LARAMIE AND FULLERTON,1424.0,5200 W FULLERTON AVENUE,05/19/2018,1,1141305.554932016,1915502.6112390482,41.924215796999995,-87.756210755,"(41.92421579723144, -87.75621075458939)"
CICERO AND WASHINGTON,1892.0,100 N CICERO AVENUE,05/19/2018,8,1144328.984091479,1900095.1708384592,41.88187971,-87.74548924700001,"(41.88187970991601, -87.7454892473012)"
SHERIDAN AND FOSTER,1134.0,1000 W FOSTER AVE,05/19/2018,2,1168689.247756979,1934758.5781416541,41.976505116,-87.655031882,"(41.97650511595711, -87.65503188224778)"
MICHIGAN AND ONTARIO,3084.0,100 E ONTARIO ST,05/19/2018,4,1177006.928692496,1904549.656773295,41.893426147,-87.625362025,"(41.89342614670784, -87.62536202456768)"
CENTRAL AND DIVERSEY,1644.0,5600 W DIVERSEY AVENUE,05/19/2018,1,1138539.758528398,1918097.096677271,41.931385977,-87.766310532,"(41.93138597683265, -87.76631053155157)"
FOSTER AND NAGLE,1034.0,6400 W FOSTER,05/19/2018,1,1132552.893142153,1934229.875527466,41.975762574,-87.787934296,"(41.97576257447203, -87.7879342955108)"
ASHLAND AND 87TH,2452.0,8700 S ASHLAND AVE,05/19/2018,4,1167150.470087748,1846991.212339794,41.735696989000004,-87.663209544,"(41.73569698863625, -87.66320954445679)"
35TH AND WESTERN,2091.0,3500 S WESTERN,05/19/2018,2,1160894.9498571008,1881376.851112895,41.830187255,-87.685177925,"(41.83018725526863, -87.68517792510231)"
HALSTED AND FULLERTON,1701.0,2400 N HALSTED STREET,05/19/2018,1,1170501.602639925,1916200.061550148,41.925540315,-87.64891215600001,"(41.925540315431995, -87.64891215551155)"
SACRAMENTO AND CHICAGO,1812.0,800 N SACRAMENTO AVEN,05/19/2018,12,1156039.008141929,1905193.084100581,41.895640714,-87.70235232799999,"(41.89564071387542, -87.70235232767416)"
PULASKI AND DIVISION,1801.0,1200 N PULASKI ROAD,05/19/2018,2,1149459.590666926,1907723.219884254,41.902713901999995,-87.72645145700001,"(41.902713901936174, -87.72645145715836)"
CICERO AND ARMITAGE,2003.0,4800 W ARMITAGE AVENUE,05/10/2018,3,1144054.25126508,1912907.00926109,41.917041992,-87.746176095,"(41.91704199201953, -87.74617609464687)"
WESTERN AND TOUHY,1252.0,7200 N WESTERN AVENUE,05/19/2018,2,1158975.66256211,1947754.2869633608,42.012371335,-87.69039391700001,"(42.012371334791766, -87.69039391737863)"
WESTERN AND ADDISON,1563.0,2400 W ADDISON,05/19/2018,3,1159719.041544334,1923878.5772757968,41.946839991,-87.688320193,"(41.9468399910054, -87.68832019252964)"
PULASKI AND 63RD,2343.0,4000 W 63RD ST,05/19/2018,1,1150768.346768175,1862564.615405259,41.77876739,-87.722823195,"(41.778767390084305, -87.72282319530368)"
HOLLYWOOD AND SHERIDAN,1343.0,1000 W HOLLYWOOD AVE,05/19/2018,4,1168580.2289264658,1938090.295189338,41.985649799,-87.65533580700001,"(41.98564979859328, -87.65533580655139)"
CICERO AND I55,2252.0,4200 S CICERO AVENUE,05/19/2018,22,1145023.742859509,1876358.2768355191,41.816729386999995,-87.74353671200001,"(41.81672938674739, -87.74353671247594)"
NORTHWEST HIGHWAY AND FOSTER,3002.0,5200 N NORTHWEST HWY,05/19/2018,4,1137806.147689466,1934042.0344602168,41.975153719,-87.76862036,"(41.975153718866956, -87.76862036015007)"
ASHLAND AND FULLERTON,1651.0,2400 N ASHLAND AVENUE,05/19/2018,10,1165228.0733428379,1916032.319169157,41.92519389,-87.66829436299999,"(41.92519388981048, -87.66829436339881)"
WESTERN AND FOSTER,1074.0,2400 W FOSTER AVE,05/19/2018,11,1159379.402846887,1934502.7124861318,41.97600019,-87.689275084,"(41.97600018976586, -87.68927508385399)"
CORTLAND AND ASHLAND,1723.0,1600 W CORTLAND ST,05/19/2018,6,1165377.660768235,1912768.773647285,41.916235336999996,-87.66783777200001,"(41.91623533746878, -87.66783777212962)"
WESTERN AND MARQUETTE,2672.0,6700 S WESTERN AVENUE,05/19/2018,7,1161488.747635042,1860134.788366884,41.771884028,-87.68358840200001,"(41.77188402771193, -87.68358840206334)"
CENTRAL AND CHICAGO,1972.0,800 N CENTRAL AVENUE,05/19/2018,5,1138836.562608552,1904801.732832435,41.894896579,-87.765543258,"(41.89489657939746, -87.76554325845893)"
55TH AND WESTERN,2213.0,2400 W 55TH STREET,05/09/2018,7,1161277.0127305991,1868185.749490228,41.793981347,-87.684141741,"(41.7939813465735, -87.68414174128355)"
71ST AND ASHLAND,2394.0,1600 W 71ST,05/19/2018,6,1166890.012333149,1857674.2502246997,41.765018306,-87.66385923,"(41.76501830555763, -87.66385923012646)"
LAWRENCE AND WESTERN,1193.0,2400 W LAWRENCE AVENUE,05/19/2018,4,1159482.648570304,1931851.989492596,41.968724349,-87.688968727,"(41.96872434882172, -87.68896872699601)"
PULASKI AND 79TH,2494.0,4000 W 79TH STREET,05/19/2018,7,1151074.116357501,1851966.830243835,41.749679359,-87.721978345,"(41.74967935883473, -87.72197834524168)"
KEDZIE AND ARMITAGE,1832.0,2000 N KEDZIE AVENUE,05/11/2018,8,1154684.031809326,1913129.496340896,41.917446172,-87.707116072,"(41.91744617191702, -87.70711607187832)"
HAMLIN AND LAKE,1881.0,300 N HAMLIN AVENUE,05/19/2018,4,1150970.026856642,1901381.688308858,41.885282636,-87.721069539,"(41.88528263580913, -87.72106953854511)"
CENTRAL AND BELMONT,1602.0,3200 N CENTRAL AVENUE,05/19/2018,1,1138430.432324593,1920731.654410336,41.938617463,-87.766648297,"(41.938617463272884, -87.76664829683827)"
WESTERN AND FULLERTON,1672.0,2400 N WESTERN AVENUE,05/19/2018,2,1159923.309342995,1915897.778561358,41.924935944,-87.687790255,"(41.92493594409127, -87.68779025471278)"
ARCHER AND CICERO,2081.0,5200 S CICERO AVE,05/19/2018,23,1145195.9319897771,1869737.7083066232,41.798558278,-87.74307186600001,"(41.798558278193305, -87.74307186616427)"
CLARK AND FULLERTON,1631.0,2400 N CLARK ST,05/19/2018,3,1172749.562209477,1916238.997132859,41.925597623,-87.64065097299999,"(41.925597623023144, -87.64065097309872)"
WESTERN AND FOSTER,1072.0,5200 N WESTERN AVE,05/19/2018,6,1159372.922497116,1934478.3136740031,41.975933372,-87.689299589,"(41.97593337199358, -87.6892995891816)"
HOMAN/KIMBALL AND NORTH,1773.0,3400 W NORTH AVE,05/19/2018,3,1153386.578905125,1910465.87061722,41.910162846999995,-87.711953868,"(41.91016284680269, -87.71195386769125)"
WESTERN AND CERMAK,1002.0,2200 S WESTERN AVENUE,05/11/2018,5,1160669.42562757,1889318.1968203932,41.85198384,-87.685785704,"(41.85198383957328, -87.68578570420526)"
PULASKI AND DIVERSEY,1542.0,2800 N PULASKI ROAD,05/19/2018,3,1149200.724531183,1918332.222549679,41.931831026,-87.72712687299999,"(41.93183102561505, -87.72712687300454)"
STONEY ISLAND AND 76TH,2631.0,7600 S STONY ISLAND A,05/09/2018,29,1188092.796191935,1854889.3541583042,41.756897173,-87.586234285,"(41.75689717260223, -87.58623428506996)"
KEDZIE AND 26TH,2381.0,2600 S KEDZIE AVENUE,05/19/2018,2,1155404.235510285,1886524.460033054,41.844424831,-87.70518545200001,"(41.84442483084393, -87.70518545233183)"
CLARK AND IRVING PARK,1091.0,4000 N CLARK STREET,05/19/2018,8,1166736.149822904,1926699.3236247092,41.954432441,-87.66244625899999,"(41.95443244141688, -87.66244625914061)"
DAMEN AND DIVERSEY,1464.0,2000 W DIVERSEY PARKWAY,05/19/2018,6,1162519.714934025,1918635.417634925,41.932394164,-87.678173031,"(41.93239416403691, -87.67817303087757)"
IRVING PARK AND CALIFORNIA,1233.0,2800 W IRVING PARK ROA,05/19/2018,8,,,,,
CICERO AND ARMITAGE,2001.0,2000 N CICERO AVENUE,05/10/2018,3,1144031.525719004,1912881.8300294997,41.916973325,-87.746260223,"(41.91697332451097, -87.74626022251057)"
ROOSEVELT AND PULASKI,2314.0,4000 W ROOSEVELT ROAD,05/19/2018,7,1149885.032049683,1894449.4640768818,41.866281003000005,-87.72523422,"(41.866281002664536, -87.72523421983905)"
BELMONT AND KEDZIE,1371.0,3200 N KEDZIE AVENUE,05/19/2018,1,1154426.977874407,1921110.4665495418,41.93935173,-87.707846594,"(41.93935173030961, -87.70784659359776)"
JEFFERY AND 95TH,2523.0,2000 E 95TH ST,05/19/2018,5,1191188.381103057,1842410.411853539,41.722579473,-87.57529252299999,"(41.722579473126416, -87.57529252250366)"
AUSTIN AND IRVING PARK,1163.0,6000 W IRVING PARK ROAD,05/19/2018,1,1135622.402636023,1926014.192063646,41.953163771999996,-87.776842593,"(41.95316377185154, -87.77684259284736)"
FULLERTON AND NARRAGANSETT,1554.0,6400 W FULLERTON AVENU,05/19/2018,5,1133317.594499059,1915293.661305931,41.923786189,-87.78556720600001,"(41.92378618871128, -87.78556720562165)"
HALSTED AND 95TH,2581.0,9500 S HALSTED STREET,05/19/2018,4,1172610.538363645,1841811.61926207,41.721365061,-87.643358042,"(41.72136506078306, -87.64335804234075)"
ASHLAND AND 87TH,2454.0,1600 W 87TH ST,05/19/2018,4,1167171.941297436,1847064.855345151,41.735898617,-87.663128781,"(41.735898617066006, -87.66312878090133)"
LAWRENCE AND CICERO,1041.0,4800 N CICERO AVE,05/19/2018,20,1143464.651785526,1931490.5518832032,41.968048007,-87.747875985,"(41.968048007293845, -87.74787598468126)"
IRVING PARK AND KILPATRICK,2763.0,4700 W IRVING PARK ROA,05/09/2018,7,,,,,
WESTERN AND TOUHY,1251.0,7200 N WESTERN AVENUE,05/19/2018,1,1158975.66256211,1947754.2869633608,42.012371335,-87.69039391700001,"(42.012371334791766, -87.69039391737863)"
WESTERN AND MARQUETTE,2674.0,2400 W MARQUETTE ROAD,05/19/2018,3,1161509.889315231,1860208.6274041259,41.772086214,-87.683508858,"(41.772086214104526, -87.68350885781568)"
CICERO AND 47TH,2204.0,4800 W 47TH ST,05/19/2018,13,1145130.0489257441,1873078.44198302,41.807727017,-87.74322936600001,"(41.80772701677172, -87.74322936566276)"
79TH AND HALSTED,2543.0,800 W 79TH STREET,05/19/2018,3,1172320.105719411,1852517.9814433998,41.750751156999996,-87.64410779299999,"(41.75075115747316, -87.64410779300933)"
CICERO AND CHICAGO,1783.0,4800 W CHICAGO AVENUE,05/19/2018,1,1144175.291152764,1904916.2552252791,41.895112219,-87.74593242700001,"(41.89511221857764, -87.74593242701515)"
CENTRAL AND DIVERSEY,1642.0,2800 N CENTRAL AVENUE,05/19/2018,1,1138516.407377375,1918089.499227987,41.931365551999995,-87.76639652899999,"(41.93136555236339, -87.76639652879172)"
STATE AND 79TH,2654.0,1 E 79TH STREET,05/10/2018,38,1177680.113652821,1852598.313477786,41.750852095999996,-87.624463832,"(41.75085209551078, -87.62446383210285)"
IRVING PARK AND KILPATRICK,2764.0,4700 W IRVING PARK ROA,05/19/2018,3,,,,,
PULASKI AND IRVING PARK,1572.0,4000 N PULASKI ROAD,05/19/2018,3,1148970.255325552,1926313.600468643,41.953737051,-87.72776661200001,"(41.95373705144353, -87.72776661179896)"
FULLERTON AND NARRAGANSETT,1553.0,6400 W FULLERTON AVENU,05/20/2018,4,1133317.594499059,1915293.661305931,41.923786189,-87.78556720600001,"(41.92378618871128, -87.78556720562165)"
MICHIGAN AND ONTARIO,3084.0,100 E ONTARIO ST,05/20/2018,4,1177006.928692496,1904549.656773295,41.893426147,-87.625362025,"(41.89342614670784, -87.62536202456768)"
ROOSEVELT AND KOSTNER,2323.0,4400 W ROOSEVELT,05/20/2018,5,1147200.963258796,1894379.538078088,41.866140868,-87.73508956,"(41.866140867641654, -87.73508956008207)"
BROADWAY/SHERIDAN AND DEVON,1122.0,6400 N SHERIDAN ROAD,05/20/2018,6,1167087.1511941291,1942658.7049886892,41.998217921,-87.660695256,"(41.99821792053241, -87.6606952555721)"
KEDZIE AND 31ST,2134.0,3200 W 31ST STREET,05/20/2018,3,1155487.128005646,1883943.0611067931,41.8373395,-87.704950558,"(41.83733950029648, -87.70495055800411)"
MILWAUKEE AND DEVON,1272.0,6400 N MILWAUKEE AVEN,05/20/2018,3,1132463.750397878,1942107.9115076268,41.997382173000005,-87.788077674,"(41.99738217345368, -87.78807767391953)"
WESTERN AND FOSTER,1072.0,5200 N WESTERN AVE,05/20/2018,4,1159372.922497116,1934478.3136740031,41.975933372,-87.689299589,"(41.97593337199358, -87.6892995891816)"
COTTAGE GROVE AND 71ST,2572.0,7100 S COTTAGE GROVE,05/20/2018,2,1182746.23698699,1858088.011064538,41.765800350999996,-87.605729127,"(41.76580035131893, -87.6057291269901)"
HALSTED AND DIVISION,1714.0,800 W DIVISION,05/20/2018,7,1170767.827960358,1908259.6441516618,41.903745557,-87.648167011,"(41.90374555734733, -87.64816701062779)"
CHICAGO AND CLARK,1964.0,100 W CHICAGO AVENUE,05/20/2018,5,1175374.528739575,1905745.47783364,41.896744346999995,-87.63132124799999,"(41.896744346875806, -87.63132124815151)"
DIVERSEY AND WESTERN,1431.0,2800 N WESTERN AVENUE,05/20/2018,5,1159837.205417355,1918550.506189309,41.932216988,-87.688033281,"(41.93221698794738, -87.68803328089533)"
VAN BUREN AND WESTERN,2054.0,2400 W VAN BUREN STREE,05/20/2018,10,,,,,
BROADWAY/SHERIDAN AND DEVON,1123.0,1200 W DEVON AVE,05/20/2018,2,1167109.644248166,1942688.147952186,41.998298228,-87.660611661,"(41.99829822771884, -87.66061166063517)"
WESTERN AND FULLERTON,1672.0,2400 N WESTERN AVENUE,05/20/2018,1,1159923.309342995,1915897.778561358,41.924935944,-87.687790255,"(41.92493594409127, -87.68779025471278)"
PULASKI AND FOSTER,1104.0,4000 W FOSTER AVE,05/20/2018,6,1148759.16134887,1934294.249006446,41.975640616,-87.728335469,"(41.975640616231914, -87.72833546926573)"
55TH AND WESTERN,2213.0,2400 W 55TH STREET,05/20/2018,10,1161277.0127305991,1868185.749490228,41.793981347,-87.684141741,"(41.7939813465735, -87.68414174128355)"
NORTHWEST HIGHWAY AND FOSTER,3002.0,5200 N NORTHWEST HWY,05/20/2018,1,1137806.147689466,1934042.0344602168,41.975153719,-87.76862036,"(41.975153718866956, -87.76862036015007)"
MONTROSE AND WESTERN,1221.0,4400 N WESTERN AVENUE,05/20/2018,5,1159539.733234718,1929183.9180955018,41.961401846,-87.688832623,"(41.961401846278505, -87.6888326227788)"
PULASKI AND CHICAGO,1983.0,4000 W CHICAGO AVENUE,05/20/2018,3,1149561.8559396921,1905086.596446259,41.895476752,-87.72614436,"(41.89547675163723, -87.72614435991626)"
ELSTON AND LAWRENCE,1282.0,4800 N ELSTON AVENUE,05/20/2018,1,1145529.344259918,1931501.6012689832,41.968039361,-87.740283894,"(41.96803936143674, -87.74028389448999)"
CALIFORNIA AND PETERSON,1311.0,6000 N CALIFORNIA AVE,05/20/2018,2,1156545.7426991179,1939775.775541795,41.990527717,-87.69955208399999,"(41.990527717148176, -87.69955208405155)"
LAWRENCE AND CICERO,1041.0,4800 N CICERO AVE,05/20/2018,6,1143464.651785526,1931490.5518832032,41.968048007,-87.747875985,"(41.968048007293845, -87.74787598468126)"
JEFFERY AND 95TH,2522.0,9500 S JEFFERY AVE,05/20/2018,3,1191132.420601301,1842335.735988875,41.722375907,-87.575499903,"(41.72237590704101, -87.57549990332795)"
WESTERN AND ADDISON,1562.0,3600 N WESTERN AVENUE,05/20/2018,10,1159695.573342728,1923871.086283556,41.94681992,-87.688406662,"(41.94681991986288, -87.68840666206194)"
PULASKI AND DIVERSEY,1542.0,2800 N PULASKI ROAD,05/20/2018,3,1149200.724531183,1918332.222549679,41.931831026,-87.72712687299999,"(41.93183102561505, -87.72712687300454)"
PULASKI AND CHICAGO,1982.0,800 N PULASKI ROAD,05/20/2018,1,1149538.444844035,1905079.034990625,41.895456456999995,-87.726230541,"(41.895456456825386, -87.72623054051289)"
31ST ST AND MARTIN LUTHER KING DRIVE,2123.0,400 E 31ST STREET,05/20/2018,1,1179437.985396417,1884565.84226022,41.838534018000004,-87.61704611299999,"(41.838534018118914, -87.61704611345726)"
55TH and PULASKI,2244.0,4000 W 55TH ST,05/20/2018,2,1150621.6769038609,1867864.274865394,41.793313334000004,-87.72322303799999,"(41.79331333358753, -87.72322303812588)"
4700 WESTERN,2142.0,4700 S WESTERN AVENUE,05/20/2018,1,1161120.438879703,1873431.066474726,41.808378408,-87.68457071700001,"(41.808378407946726, -87.68457071689552)"
MONTROSE AND WESTERN,1224.0,2400 W MONTROSE AVENUE,05/20/2018,1,1159562.971802959,1929191.3377012531,41.961421726,-87.68874698,"(41.961421726406314, -87.68874697983858)"
MILWAUKEE AND DEVON,1274.0,6400 W DEVON AVENUE,05/20/2018,12,1132590.619798275,1942138.532048656,41.997463980999996,-87.78761024299999,"(41.99746398102873, -87.78761024341388)"
ELSTON AND IRVING PARK,1503.0,3700 W IRVING PARK ROA,05/20/2018,4,,,,,
CICERO AND FULLERTON,1474.0,4800 W FULLERTON AVE,05/20/2018,2,1143967.570794243,1915568.5049544768,41.924347036,-87.74642764,"(41.924347036010694, -87.74642763965628)"
VAN BUREN AND WESTERN,2052.0,400 S WESTERN AVENUE,05/20/2018,31,1160431.682297829,1898091.9423715891,41.876064776,-87.686415631,"(41.87606477642526, -87.68641563098768)"
IRVING PARK AND NARRAGANSETT,1023.0,6400 W IRVING PK,05/20/2018,2,1132945.939118726,1925946.304925137,41.953024751,-87.786683238,"(41.95302475075328, -87.78668323766634)"
BELMONT AND KEDZIE,1373.0,3200 W BELMONT,05/20/2018,1,1154461.587940363,1921143.091003516,41.939440561,-87.707718516,"(41.93944056117365, -87.70771851630873)"
LARAMIE AND FULLERTON,1424.0,5200 W FULLERTON AVENUE,05/20/2018,1,1141305.554932016,1915502.6112390482,41.924215796999995,-87.756210755,"(41.92421579723144, -87.75621075458939)"
LAKE SHORE DR AND BELMONT,1412.0,3200 N LAKESHORE DRIV,05/20/2018,8,1173053.220555078,1921821.380831705,41.940909163,-87.63936916,"(41.94090916326764, -87.63936915995522)"
ASHLAND AND IRVING PARK,1153.0,1600 W IRVING PARK ROA,05/20/2018,3,,,,,
CICERO AND PETERSON,1202.0,6000 N CICERO AVENUE,05/20/2018,2,1143247.733553094,1939479.3429057042,41.989973915,-87.74847302399999,"(41.98997391514614, -87.74847302426933)"
LARAMIE AND MADISON,2043.0,5200 W MADISON STREET,05/20/2018,8,1141706.965522802,1899567.55684314,41.880480752,-87.75513043299999,"(41.88048075170171, -87.75513043296509)"
HALSTED AND NORTH,1764.0,800 W NORTH AVENUE,05/20/2018,2,1170700.68422007,1910913.190749698,41.91102851,-87.648335806,"(41.91102850981186, -87.64833580602037)"
ROOSEVELT AND HALSTED,2234.0,800 W ROOSEVELT ROAD,05/20/2018,4,1171199.282357741,1894968.0563937242,41.867263098,-87.646972686,"(41.86726309836901, -87.64697268601648)"
KIMBALL AND DIVERSEY,1581.0,2800 N KIMBALL AVENUE,05/20/2018,4,,,,,
CLARK AND IRVING PARK,1091.0,4000 N CLARK STREET,05/20/2018,3,1166736.149822904,1926699.3236247092,41.954432441,-87.66244625899999,"(41.95443244141688, -87.66244625914061)"
MICHIGAN AND JACKSON,3041.0,300 S MICHIGAN AVE,05/20/2018,16,1177299.435435548,1899009.612280663,41.878217345,-87.62445584,"(41.87821734531058, -87.62445584029679)"
ROOSEVELT AND KOSTNER,2321.0,1200 S KOSTNER,05/20/2018,2,1147196.304001978,1894305.8832697459,41.865938839,-87.735108549,"(41.8659388389088, -87.73510854901264)"
IRVING PARK AND NARRAGANSETT,1024.0,6400 W IRVING PK,05/20/2018,4,1132945.939118726,1925946.304925137,41.953024751,-87.786683238,"(41.95302475075328, -87.78668323766634)"
79TH AND KEDZIE,2443.0,3200 W 79TH ST,05/20/2018,5,1156402.644780165,1852104.6493709842,41.749952001,-87.702448478,"(41.74995200142266, -87.70244847808695)"
CENTRAL AND CHICAGO,1972.0,800 N CENTRAL AVENUE,05/20/2018,7,1138836.562608552,1904801.732832435,41.894896579,-87.765543258,"(41.89489657939746, -87.76554325845893)"
CALIFORNIA AND DIVERSEY,1514.0,2800 W DIVERSEY,05/20/2018,19,1157212.54253358,1918526.6744349431,41.932205395,-87.697679244,"(41.93220539506452, -87.6976792438691)"
STATE AND 79TH,2651.0,7900 S STATE STREET,05/20/2018,8,1177618.1669299658,1852621.8702328382,41.750918138,-87.624690123,"(41.7509181383154, -87.62469012251644)"
ELSTON AND ADDISON,1402.0,3600 N ELSTON AVE,05/20/2018,2,1154106.95251778,1923731.0362110808,41.946549165,-87.708952626,"(41.94654916480637, -87.70895262603513)"
ASHLAND AND MADISON,1914.0,1600 W MADISON,05/20/2018,1,1165723.014733182,1900136.5154895058,41.881564167,-87.66692946299999,"(41.8815641670199, -87.66692946294842)"
CICERO AND CHICAGO,1781.0,800 N CICERO AVENUE,05/20/2018,4,1144169.162482127,1904893.189220372,41.895049038,-87.74595551600001,"(41.89504903796389, -87.74595551626888)"
KIMBALL AND DIVERSEY,1583.0,3400 W DIVERSEY AVENUE,05/20/2018,9,1153211.149172713,1918454.477800566,41.932087747,-87.71238583,"(41.932087747378944, -87.71238582951281)"
WESTERN AND MARQUETTE,2674.0,2400 W MARQUETTE ROAD,05/20/2018,6,1161509.889315231,1860208.6274041259,41.772086214,-87.683508858,"(41.772086214104526, -87.68350885781568)"
111TH AND HALSTED,2424.0,800 W 111TH ST,05/20/2018,1,1172945.404219168,1831282.9170278818,41.692465363000004,-87.642440901,"(41.692465363421874, -87.64244090105778)"
IRVING PARK AND CALIFORNIA,1233.0,2800 W IRVING PARK ROA,05/20/2018,6,,,,,
STONEY ISLAND AND 79TH,2464.0,1600 E 79TH ST,05/20/2018,6,1188284.704439907,1852964.829047574,41.751611523,-87.585592284,"(41.75161152327319, -87.58559228428787)"
ASHLAND AND DIVISION,1791.0,1200 N ASHLAND AVENUE,05/20/2018,12,1165466.997046718,1908083.767015974,41.903377468,-87.667643142,"(41.903377467566784, -87.66764314227497)"
CANAL AND ROOSEVELT,2291.0,1200 S CANAL STREET,05/20/2018,8,1173268.771030949,1894952.6348787318,41.867175125,-87.63937581299999,"(41.86717512472001, -87.63937581258092)"
ASHLAND AND FULLERTON,1652.0,2400 N ASHLAND AVENUE,05/20/2018,12,1165228.0733428379,1916032.319169157,41.92519389,-87.66829436299999,"(41.92519388981048, -87.66829436339881)"
COLUMBUS AND ILLINOIS,1951.0,500 N COLUMBUS DRIVE,05/20/2018,7,1178372.808407292,1903693.06016042,41.891044569,-87.620371839,"(41.891044569124276, -87.620371839074)"
111TH AND HALSTED,2422.0,11100 S HALSTED ST,05/20/2018,9,1172923.657689312,1831209.0441792482,41.692263123000004,-87.64252268799999,"(41.692263123425136, -87.6425226876268)"
HAMLIN AND MADISON,1903.0,3800 W MADISON STREET,05/20/2018,3,1151032.709141294,1899784.033986533,41.880897273,-87.720881226,"(41.880897273491264, -87.72088122613924)"
99TH AND HALSTED,2431.0,9900 S HALSTED ST,05/20/2018,10,1172689.754200318,1839171.652197216,41.714118868,-87.643145408,"(41.714118868089905, -87.64314540818165)"
OGDEN AND KOSTNER,2223.0,4400 W OGDEN AVENUE,05/20/2018,6,1147406.592439224,1887689.099869462,41.847777523000005,-87.734505969,"(41.84777752280453, -87.73450596874825)"
55TH AND KEDZIE,2163.0,3200 W 55TH STREET,05/20/2018,4,1155966.956993183,1868015.593764152,41.793622803000005,-87.703618141,"(41.79362280329978, -87.70361814062049)"
CORTLAND AND ASHLAND,1721.0,1900 N ASHLAND AVE,05/20/2018,23,1165348.084854857,1912736.4543355692,41.916147281,-87.66794735399999,"(41.91614728095272, -87.66794735350443)"
LAWRENCE AND CICERO,1042.0,4800 N CICERO AVENUE,05/20/2018,7,1143464.651785526,1931490.5518832032,41.968048007,-87.747875985,"(41.968048007293845, -87.74787598468126)"
KEDZIE AND ARMITAGE,1834.0,3200 W ARMITAGE AVENUE,05/20/2018,2,1154700.851347995,1913153.252187904,41.917511023,-87.707053639,"(41.91751102291878, -87.7070536388797)"
119TH AND HALSTED,2404.0,800 W 119TH STREET,05/20/2018,3,1173111.174088158,1825985.001014405,41.677923389,-87.641989646,"(41.677923389134385, -87.64198964584013)"
ASHLAND AND 95TH,2472.0,9500 S ASHLAND AVENUE,05/20/2018,4,1167295.830128711,1841695.121217916,41.721160612,-87.662828139,"(41.72116061205213, -87.66282813939165)"
BELMONT AND KEDZIE,1372.0,3200 N KEDZIE AVE,05/20/2018,16,1154426.977874407,1921110.4665495418,41.93935173,-87.707846594,"(41.93935173030961, -87.70784659359776)"
PETERSON AND WESTERN,1011.0,6000 N WESTERN AVE,05/20/2018,6,1159190.625032041,1939816.75471116,41.990586042,-87.68982247299999,"(41.99058604241958, -87.68982247294417)"
CALIFORNIA AND DIVERSEY,1511.0,2800 N CALIFORNIA AVE,05/20/2018,8,1157189.355049829,1918495.6447540692,41.932120719000004,-87.6977653,"(41.93212071910647, -87.69776530036465)"
WESTERN AND DEVON,1211.0,6400 N WESTERN AVENUE,05/20/2018,2,1159113.5857594342,1942451.622367891,41.997817807,-87.690033035,"(41.997817807026, -87.69003303469276)"
WESTERN AND 63RD,2371.0,6300 S WESTERN AVE,05/20/2018,1,1161415.712688877,1862772.38856596,41.779123484,-87.683783099,"(41.77912348383963, -87.68378309863576)"
CLARK AND FULLERTON,1632.0,2400 N CLARK ST,05/20/2018,2,1172749.562209477,1916238.997132859,41.925597623,-87.64065097299999,"(41.925597623023144, -87.64065097309872)"
TOUHY AND OSCEOLA,1243.0,7432 W TOUHY AVENUE,05/20/2018,2,1125717.010560011,1947269.685461107,42.011661765,-87.812781431,"(42.01166176507329, -87.81278143114147)"
CANAL AND ROOSEVELT,2294.0,500 W ROOSEVELT ROAD,05/20/2018,12,1173290.72186561,1895021.166235495,41.867362693000004,-87.639293195,"(41.867362692616666, -87.63929319464197)"
ASHLAND AND DIVISION,1793.0,1600 W DIVISION STREET,05/20/2018,1,1165489.684200442,1908112.312963909,41.903455316,-87.66755899399999,"(41.903455316483814, -87.66755899396976)"
PULASKI AND 63RD,2343.0,4000 W 63RD ST,05/20/2018,4,1150768.346768175,1862564.615405259,41.77876739,-87.722823195,"(41.778767390084305, -87.72282319530368)"
SACRAMENTO AND LAKE,1821.0,150 N SACRAMENTO BOUL,05/20/2018,1,1156319.560664766,1900957.4893519618,41.884012178,-87.701436479,"(41.88401217771363, -87.7014364786693)"
ASHLAND AND MADISON,1911.0,0 N ASHLAND AVE,05/20/2018,4,,,,,
HALSTED AND 95TH,2582.0,9500 S HALSTED STREET,05/20/2018,2,1172610.538363645,1841811.61926207,41.721365061,-87.643358042,"(41.72136506078306, -87.64335804234075)"
PULASKI AND IRVING PARK,1574.0,4000 W IRVING PARK RD,05/20/2018,8,1148988.727877253,1926320.9549384092,41.953756874,-87.72769851299999,"(41.95375687447515, -87.72769851312907)"
KEDZIE AND 47TH,2101.0,4700 S KEDZIE AVE,05/20/2018,5,1155791.949302478,1873270.7784813268,41.808047271999996,-87.70411882200001,"(41.80804727165029, -87.70411882229871)"
PULASKI AND DIVISION,1802.0,1200 N PULASKI ROAD,05/20/2018,9,1149459.590666926,1907723.219884254,41.902713901999995,-87.72645145700001,"(41.902713901936174, -87.72645145715836)"
71ST AND ASHLAND,2394.0,1600 W 71ST,05/20/2018,5,1166890.012333149,1857674.2502246997,41.765018306,-87.66385923,"(41.76501830555763, -87.66385923012646)"
HALSTED AND NORTH,1761.0,1600 N HALSTED STREET,05/20/2018,5,1170678.283433825,1910880.9913975468,41.910940644,-87.64841904299999,"(41.91094064391597, -87.64841904272998)"
MILWAUKEE AND CENTRAL,3022.0,5232 N MILWAUKEE AVE,05/20/2018,5,1138074.161743901,1934115.431678809,41.975350275,-87.767632985,"(41.97535027477604, -87.76763298459159)"
WESTERN AND CHICAGO,1941.0,800 N WESTERN AVE,05/20/2018,2,1160220.9679786079,1905277.507115921,41.895786955,-87.68699058600001,"(41.89578695485361, -87.68699058611217)"
DIVISION AND DAMEN,1734.0,2000 W DIVISION,05/20/2018,9,1162815.7108601942,1908034.672555531,41.903298793000005,-87.67738324700001,"(41.903298792681944, -87.67738324739636)"
99TH AND HALSTED,2433.0,800 W 99TH ST,05/20/2018,15,1172710.6425656842,1839246.3306021432,41.714323336999996,-87.643066714,"(41.71432333701137, -87.64306671421937)"
LAWRENCE AND WESTERN,1193.0,2400 W LAWRENCE AVENUE,05/20/2018,3,1159482.648570304,1931851.989492596,41.968724349,-87.688968727,"(41.96872434882172, -87.68896872699601)"
CENTRAL AND IRVING PARK,1183.0,5600 W IRVING PARK ROAD,05/20/2018,9,1138281.535484986,1926078.647777633,41.953292847,-87.76706570799999,"(41.953292847298, -87.76706570775266)"
WESTERN AND NORTH,1851.0,1600 N WESTERN AVE,05/20/2018,4,1160077.474351131,1910605.013316134,41.910409024,-87.687370268,"(41.91040902362901, -87.687370268401)"
CICERO AND CHICAGO,1783.0,4800 W CHICAGO AVENUE,05/20/2018,1,1144175.291152764,1904916.2552252791,41.895112219,-87.74593242700001,"(41.89511221857764, -87.74593242701515)"
STONEY ISLAND AND 76TH,2632.0,7600 S STONY ISLAND A,05/20/2018,30,1188092.796191935,1854889.3541583042,41.756897173,-87.586234285,"(41.75689717260223, -87.58623428506996)"
KOSTNER AND NORTH,2011.0,1600 N KOSTNER,05/20/2018,1,1146732.108679105,1910282.120990798,41.909788304,-87.736404667,"(41.90978830394343, -87.73640466739216)"
CICERO AND I55,2252.0,4200 S CICERO AVENUE,05/20/2018,12,1145023.742859509,1876358.2768355191,41.816729386999995,-87.74353671200001,"(41.81672938674739, -87.74353671247594)"
PULASKI AND FOSTER,1102.0,5200 N PULASKI RD,05/20/2018,4,1148746.251286324,1934286.9143619759,41.97562074,-87.728383135,"(41.97562073966174, -87.72838313514907)"
PULASKI AND FULLERTON,1481.0,2400 N PULASKI RD,05/20/2018,2,1149275.963864089,1915687.6319317569,41.924572574,-87.726919111,"(41.92457257416937, -87.72691911144182)"
ASHLAND AND LAWRENCE,1142.0,4800 N ASHLAND AVENUE,05/20/2018,1,1164751.686785145,1932001.206626392,41.96902343,-87.669590434,"(41.969023429614026, -87.66959043354217)"
CENTRAL AND FULLERTON,1442.0,2400 N CENTRAL AVENUE,05/20/2018,1,1138603.468418662,1915431.0582124142,41.924068922,-87.766141214,"(41.92406892227644, -87.76614121413186)"
75TH AND STATE,2624.0,1 E 75TH STREET,05/20/2018,11,1177601.72646404,1855229.486604181,41.758074111,-87.624671658,"(41.75807411097799, -87.62467165835182)"
PULASKI AND 79TH,2494.0,4000 W 79TH STREET,05/20/2018,2,1151074.116357501,1851966.830243835,41.749679359,-87.721978345,"(41.74967935883473, -87.72197834524168)"
DIVISION AND DAMEN,1733.0,2000 W DIVISION,05/20/2018,2,1162815.7108601942,1908034.672555531,41.903298793000005,-87.67738324700001,"(41.903298792681944, -87.67738324739636)"
SACRAMENTO AND LAKE,1822.0,150 N SACRAMENTO BOUL,05/20/2018,21,1156319.560664766,1900957.4893519618,41.884012178,-87.701436479,"(41.88401217771363, -87.7014364786693)"
PETERSON AND WESTERN,1014.0,2400 W PETERSON,05/20/2018,10,1159214.211316277,1939825.301874586,41.99060901,-87.689735481,"(41.990609009807294, -87.68973548092968)"
FOSTER AND NORTHWEST HIGHWAY,3003.0,5616 W FOSTER AVE,05/20/2018,3,1137626.093281239,1934273.239128334,41.97579142,-87.769276893,"(41.975791419680704, -87.76927689293382)"
SACRAMENTO AND CHICAGO,1812.0,800 N SACRAMENTO AVEN,05/20/2018,5,1156039.008141929,1905193.084100581,41.895640714,-87.70235232799999,"(41.89564071387542, -87.70235232767416)"
CICERO AND NORTH,2034.0,4800 W NORTH AVENUE,05/20/2018,2,1144053.7337471629,1910243.80567041,41.90973389,-87.74624497299999,"(41.909733890131285, -87.74624497295898)"
HALSTED AND DIVISION,1711.0,1200 N HALSTED,05/20/2018,6,1170746.639428735,1908242.256010774,41.903698308,-87.648245351,"(41.90369830765008, -87.64824535062563)"
HARLEM AND BELMONT,1391.0,3200 N HARLEM AVE,05/20/2018,1,1127481.020995451,1920467.613239239,41.938084468,-87.80689674899999,"(41.93808446822169, -87.80689674887883)"
71ST AND ASHLAND,2391.0,7100 S ASHLAND,05/20/2018,5,1166868.379865725,1857616.168087255,41.764859382,-87.663940176,"(41.764859382425385, -87.66394017630476)"
STONEY ISLAND AND 79TH,2462.0,7900 S STONEY ISLAND,05/20/2018,3,1188181.5710682971,1852908.934789311,41.751460603000005,-87.58597199299999,"(41.75146060316686, -87.5859719929647)"
HALSTED AND FULLERTON,1704.0,800 W FULLERTON AVENUE,05/20/2018,1,1170525.624723311,1916208.4439927782,41.925562791,-87.648823641,"(41.92556279107417, -87.64882364145232)"
MADISON AND WESTERN,1934.0,2400 W MADISON,05/20/2018,1,1160384.621277157,1899988.6557223732,41.881270504,-87.68653594,"(41.88127050428818, -87.68653594017124)"
ADDISON AND HARLEM,1591.0,3600 N HARLEM AVENUE,05/20/2018,4,1127394.594070737,1923110.532422811,41.945338412,-87.807154769,"(41.94533841246591, -87.80715476912044)"
HAMLIN AND LAKE,1881.0,300 N HAMLIN AVENUE,05/20/2018,5,1150970.026856642,1901381.688308858,41.885282636,-87.721069539,"(41.88528263580913, -87.72106953854511)"
IRVING PARK AND KILPATRICK,2763.0,4700 W IRVING PARK ROA,05/20/2018,2,,,,,
FOSTER AND NAGLE,1034.0,6400 W FOSTER,05/20/2018,1,1132552.893142153,1934229.875527466,41.975762574,-87.787934296,"(41.97576257447203, -87.7879342955108)"
KEDZIE AND 47TH,2104.0,3200 W 47TH ST,05/20/2018,3,1155815.231505056,1873336.169728074,41.808226246,-87.70403167200001,"(41.808226246244026, -87.70403167215984)"
PULASKI AND DIVERSEY,1543.0,4000 W DIVERSEY AVENUE,05/20/2018,3,1149206.496130705,1918356.569267582,41.931897723,-87.72710503,"(41.9318977231462, -87.72710503045386)"
SHERIDAN AND FOSTER,1132.0,5200 N SHERIDAN ROAD,05/20/2018,1,1168661.6237182291,1934753.842272756,41.976492721,-87.655133605,"(41.97649272077833, -87.65513360456677)"
63RD AND STATE,2714.0,1 E 63RD ST,05/20/2018,10,1177367.518733101,1863199.17768559,41.779949105,-87.62528955299999,"(41.779949104569106, -87.62528955333775)"
ASHLAND AND IRVING PARK,1151.0,4000 N ASHLAND AVENUE,05/20/2018,6,1164899.463802581,1926665.661118925,41.954379326,-87.66919912,"(41.954379326212695, -87.66919911980419)"
OGDEN AND KOSTNER,2222.0,2348 S KOSTNER AVENUE,05/20/2018,10,1147394.548182079,1887795.1777820818,41.848068845,-87.734547457,"(41.8480688449598, -87.73454745748458)"
LAKE SHORE DR AND BELMONT,1413.0,400 W BELMONT AVE,05/20/2018,45,1172981.7448693821,1921577.3761288018,41.940241193,-87.63963911399999,"(41.94024119325571, -87.63963911427594)"
LAFAYETTE AND 87TH,2503.0,30 W 87TH STREET,05/20/2018,46,1177407.6518002371,1847320.7720583118,41.736376037,-87.625621311,"(41.736376036604916, -87.62562131092602)"
ARCHER AND CICERO,2084.0,5400 S ARCHER AVE,05/20/2018,10,1145209.426392053,1869810.657411975,41.798758208,-87.743020541,"(41.798758207843264, -87.74302054146467)"
KEDZIE AND 26TH,2382.0,2600 S KEDZIE AVENUE,05/20/2018,2,1155404.235510285,1886524.460033054,41.844424831,-87.70518545200001,"(41.84442483084393, -87.70518545233183)"
FOSTER AND NAGLE,1031.0,5200 N NAGLE,05/20/2018,13,1132529.656558223,1934201.702060651,41.97568567,-87.788020406,"(41.97568566971868, -87.78802040620296)"
IRVING PARK AND CALIFORNIA,1234.0,2800 W IRVING PARK ROA,05/20/2018,2,,,,,
RIDGE AND CLARK,1051.0,5930 N CLARK STREET,05/20/2018,3,1164554.784723473,1939388.5115164418,41.98929863,-87.67010412100001,"(41.98929863013193, -87.67010412112992)"
WESTERN AND 79TH,2481.0,7900 S WESTERN AVE,05/20/2018,5,1161711.516404028,1852181.6856861182,41.750054934,-87.682992203,"(41.750054933649984, -87.68299220290213)"
CENTRAL AND MILWAUKEE,3032.0,5232 N CENTRAL AVE,05/20/2018,1,1137802.482559734,1934544.3605564882,41.976532211,-87.768621661,"(41.976532211352456, -87.76862166095856)"
PULASKI AND FULLERTON,1484.0,4000 W FULLERTON AVE,05/20/2018,5,1149303.081963737,1915695.2752226482,41.924593021999996,-87.72681926799999,"(41.92459302175305, -87.7268192684032)"
